City_ID,City,Lat,Lng,Max Temp,Humidity,Cloudiness,Wind Speed,Country,Date
0,hobart,-42.8794,147.3294,17.25,89,86,0.0,AU,1674572116
1,busselton,-33.65,115.3333,17.120000000000005,84,1,7.11,AU,1674571931
2,new norfolk,-42.7826,147.0587,17.060000000000002,72,82,0.56,AU,1674572116
3,bluff,-46.6,168.3333,10.010000000000048,85,10,2.37,NZ,1674572116
4,atuona,-9.8,-139.0333,25.79000000000002,76,1,8.2,PF,1674572116
5,vaini,-21.2,-175.2,25.090000000000032,100,20,2.06,TO,1674572116
6,praia,14.9215,-23.5087,25.30000000000001,47,20,4.12,CV,1674572060
7,alofi,-19.0595,-169.9187,21.939999999999998,94,13,0.0,NU,1674572117
8,hermanus,-34.4187,19.2345,19.890000000000043,58,100,7.82,ZA,1674572117
9,bambous virieux,-20.3428,57.7575,25.140000000000043,83,75,1.54,MU,1674572117
10,ilulissat,69.2167,-51.1,-8.359999999999957,80,100,1.94,GL,1674572117
11,saint-louis,16.3333,-15.0,32.33000000000004,15,76,1.6,SN,1674572117
12,kodiak,57.79,-152.4072,2.590000000000032,93,100,2.28,US,1674572118
13,khatanga,71.9667,102.5,-39.369999999999976,96,77,3.2,RU,1674572118
14,fort-shevchenko,44.5086,50.263,0.12000000000000455,48,12,4.76,KZ,1674572118
15,torbay,47.6666,-52.7314,6.990000000000009,94,100,7.72,CA,1674572118
16,dolinsk,47.35,142.8,-20.519999999999982,98,100,2.9,RU,1674572118
17,hilo,19.7297,-155.09,22.930000000000007,90,75,2.57,US,1674572118
18,wuwei,37.9281,102.6414,-10.579999999999984,27,0,1.55,CN,1674572118
19,dok kham tai,19.1624,99.9934,20.200000000000045,51,0,1.18,TH,1674571869
20,punta arenas,-53.15,-70.9167,11.010000000000048,53,40,12.86,CL,1674572119
21,longyearbyen,78.2186,15.6401,-2.089999999999975,74,75,7.2,SJ,1674572119
22,cape town,-33.9258,18.4232,22.430000000000007,51,75,7.72,ZA,1674572108
23,shache,38.4167,77.2406,-12.299999999999955,89,82,0.81,CN,1674572119
24,guarapari,-20.6667,-40.4975,27.310000000000002,82,100,1.33,BR,1674572119
25,madras,13.0878,80.2785,25.99000000000001,73,20,4.12,IN,1674572064
26,mantua,45.1667,10.7833,12.580000000000041,67,89,1.34,IT,1674572120
27,dikson,73.5069,80.5464,-20.559999999999974,95,100,14.89,RU,1674572120
28,iberia,29.9502,-91.7507,10.980000000000018,81,100,4.63,US,1674572120
29,capuluan,13.8147,122.5181,23.360000000000014,86,52,4.62,PH,1674572120
30,atambua,-9.1061,124.8925,23.27000000000004,89,96,1.48,ID,1674572120
31,rio grande,-32.035,-52.0986,32.06,50,0,3.35,BR,1674572120
32,santa cruz,-17.8,-63.1667,25.03000000000003,88,75,6.69,BO,1674572120
33,saskylakh,71.9167,114.0833,-23.95999999999998,100,100,0.16,RU,1674572120
34,ribeira grande,38.5167,-28.7,17.650000000000034,77,40,5.66,PT,1674572063
35,san patricio,28.017,-97.5169,21.920000000000016,90,100,8.7,US,1674572121
36,rikitea,-23.1203,-134.9692,26.03000000000003,69,26,8.31,PF,1674572121
37,golfito,8.639,-83.166,27.560000000000002,68,9,0.77,CR,1674572121
38,tuktoyaktuk,69.4541,-133.0374,-23.99999999999997,84,100,4.63,CA,1674572121
39,cururupu,-1.8283,-44.8683,26.970000000000027,83,92,1.97,BR,1674572122
40,ushuaia,-54.8,-68.3,13.79000000000002,57,75,8.23,AR,1674572122
41,fayaoue,-20.65,166.5333,27.54000000000002,79,19,1.97,NC,1674572122
42,albany,42.6001,-73.9662,1.6400000000000432,74,95,5.39,US,1674572122
43,avarua,-21.2078,-159.775,22.03000000000003,100,40,1.03,CK,1674572122
44,mataura,-46.1927,168.8643,6.680000000000007,99,14,0.92,NZ,1674572122
45,mahanje,-9.9333,35.3333,20.99000000000001,87,100,1.61,TZ,1674572123
46,suoyarvi,62.0833,32.35,-2.079999999999984,96,100,2.67,RU,1674572123
47,lobito,-12.3481,13.5456,27.450000000000045,75,98,3.72,AO,1674572123
48,villazon,-22.0866,-65.5942,18.210000000000036,39,7,0.82,BO,1674572123
49,arraial do cabo,-22.9661,-42.0278,26.980000000000018,83,75,3.6,BR,1674572123
50,topolobampo,25.6,-109.05,12.120000000000005,46,7,5.27,MX,1674572123
51,berdigestyakh,62.0989,126.6992,-42.889999999999986,100,100,1.25,RU,1674572123
52,lamu,-2.2717,40.902,26.129999999999995,80,100,5.46,KE,1674572124
53,plettenberg bay,-34.0527,23.3716,18.610000000000014,73,94,6.59,ZA,1674572124
54,hamilton,39.1834,-84.5333,1.9800000000000182,87,100,1.34,US,1674572125
55,faanui,-16.4833,-151.75,27.680000000000007,66,100,5.57,PF,1674572125
56,tasiilaq,65.6145,-37.6368,-10.20999999999998,67,99,2.61,GL,1674572125
57,itarema,-2.9248,-39.9167,28.910000000000025,64,67,3.8,BR,1674572125
58,norman wells,65.282,-126.8329,-22.97999999999999,77,100,0.0,CA,1674572125
59,nome,64.5011,-165.4064,-24.99999999999997,89,3,3.44,US,1674572125
60,ust-kulom,61.6864,53.6902,-12.560000000000002,96,100,2.57,RU,1674572125
61,angoche,-16.2325,39.9086,29.760000000000048,67,96,4.75,MZ,1674572126
62,quatre cocos,-20.2078,57.7625,25.060000000000002,91,100,2.65,MU,1674572126
63,puerto del rosario,28.5004,-13.8627,20.860000000000014,49,20,8.23,ES,1674572126
64,castro,-24.7911,-50.0119,26.25,54,0,0.84,BR,1674572126
65,naifaru,5.4444,73.3657,24.390000000000043,87,100,6.36,MV,1674572126
66,sabla,12.7525,4.7077,36.58000000000004,7,79,4.65,NG,1674572126
67,iztapa,13.9333,-90.7075,27.480000000000018,47,2,1.47,GT,1674572126
68,lazaro cardenas,17.9583,-102.2,23.980000000000018,45,4,1.52,MX,1674572127
69,anito,12.4497,125.2886,25.370000000000005,80,85,6.37,PH,1674572127
70,leningradskiy,69.3833,178.4167,-30.619999999999976,92,19,4.23,RU,1674572127
71,nikolskoye,59.7035,30.7861,-0.049999999999954525,95,99,3.62,RU,1674572127
72,jamestown,42.097,-79.2353,0.7700000000000387,97,100,7.72,US,1674572127
73,loreto,22.2667,-101.9667,10.660000000000025,64,83,6.65,MX,1674572128
74,kahului,20.8947,-156.47,23.25,84,10,1.34,US,1674572128
75,ngunguru,-35.6167,174.5,19.5,69,83,6.42,NZ,1674572128
76,tiksi,71.6872,128.8694,-30.93999999999997,99,100,2.21,RU,1674572095
77,srednekolymsk,67.45,153.6833,-31.23999999999998,95,100,1.02,RU,1674572129
78,camacha,33.0833,-16.3333,16.680000000000007,55,75,7.2,PT,1674572129
79,barrow,71.2906,-156.7887,-20.98999999999998,77,100,8.75,US,1674572129
80,saint marys,30.7305,-81.5465,16.120000000000005,74,0,5.14,US,1674572129
81,tual,-5.6667,132.75,28.110000000000014,78,100,4.37,ID,1674572129
82,east london,-33.0153,27.9116,23.52000000000004,64,75,9.77,ZA,1674571911
83,talnakh,69.4865,88.3972,-29.329999999999984,93,99,4.15,RU,1674572130
84,saint anthony,45.0205,-93.218,-9.039999999999964,93,0,0.89,US,1674572130
85,tayoltita,24.0833,-105.9333,11.850000000000023,83,59,0.79,MX,1674572130
86,chokurdakh,70.6333,147.9167,-29.109999999999985,93,100,0.61,RU,1674572130
87,anadyr,64.75,177.4833,-18.71999999999997,65,0,2.0,RU,1674572130
88,avera,33.194,-82.5271,4.75,61,0,1.91,US,1674572130
89,sala,34.0389,-6.8166,14.379999999999995,47,40,5.14,MA,1674572131
90,san-pedro,4.7485,-6.6363,29.640000000000043,64,82,4.65,CI,1674572131
91,banda aceh,5.5577,95.3222,24.230000000000018,84,98,5.36,ID,1674572071
92,mar del plata,-38.0023,-57.5575,33.24000000000001,40,0,7.2,AR,1674572131
93,bari,41.1177,16.8512,12.710000000000036,70,0,2.57,IT,1674572131
94,pitimbu,-7.4706,-34.8086,29.33000000000004,63,32,5.05,BR,1674572131
95,bredasdorp,-34.5322,20.0403,19.08000000000004,51,87,8.11,ZA,1674572131
96,sao joao da barra,-21.6403,-41.0511,29.05000000000001,86,100,2.65,BR,1674572131
97,bubaque,11.2833,-15.8333,23.49000000000001,76,20,4.4,GW,1674572132
98,cayenne,4.9333,-52.3333,29.02000000000004,65,75,5.66,GF,1674572132
99,kapaa,22.0752,-159.319,19.5,79,1,0.45,US,1674572132
100,qaanaaq,77.484,-69.3632,-24.349999999999966,64,23,3.21,GL,1674572132
101,port lincoln,-34.7333,135.8667,16.100000000000023,83,1,4.03,AU,1674572132
102,upernavik,72.7868,-56.1549,-18.029999999999973,78,100,3.07,GL,1674571996
103,lavrentiya,65.5833,-171.0,-26.17999999999998,96,34,4.95,RU,1674572132
104,bilibino,68.0546,166.4372,-26.18999999999997,72,100,1.93,RU,1674571895
105,valparaiso,-33.0393,-71.6273,23.129999999999995,62,0,6.17,CL,1674572133
106,hofn,64.2539,-15.2082,5.510000000000048,90,100,5.2,IS,1674572133
107,georgetown,5.4112,100.3354,25.960000000000036,87,20,1.03,MY,1674572069
108,saint-pierre,-21.3393,55.4781,24.82000000000005,88,75,1.03,RE,1674572133
109,omboue,-1.5746,9.2618,28.24000000000001,71,99,3.75,GA,1674572133
110,bulungu,-4.55,18.6,28.80000000000001,66,84,2.09,CD,1674572134
111,butaritari,3.0707,172.7902,27.08000000000004,78,67,8.33,KI,1674572134
112,deniliquin,-35.5333,144.9667,18.879999999999995,67,0,0.74,AU,1674572134
113,altay,47.8667,88.1167,-18.69999999999999,98,100,0.97,CN,1674572134
114,khor,47.8861,134.9464,-42.91999999999999,100,61,0.63,RU,1674572134
115,khani,41.9563,42.9566,5.760000000000048,49,0,2.14,GE,1674572134
116,esperance,-33.8667,121.9,19.170000000000016,81,27,7.79,AU,1674572134
117,steinbach,50.1667,8.5667,4.210000000000036,75,100,4.12,DE,1674572135
118,ahipara,-35.1667,173.1667,17.470000000000027,89,94,3.85,NZ,1674572135
119,carnarvon,-24.8667,113.6333,24.629999999999995,77,0,6.34,AU,1674572027
120,umm kaddadah,13.6017,26.6876,29.400000000000034,15,25,6.84,SD,1674572135
121,puerto ayora,-0.7393,-90.3518,24.980000000000018,96,12,0.45,EC,1674572135
122,richards bay,-28.783,32.0377,29.700000000000045,61,0,7.31,ZA,1674572136
123,korla,41.7597,86.1469,-12.859999999999957,69,42,1.51,CN,1674572136
124,waingapu,-9.6567,120.2641,26.390000000000043,80,100,0.34,ID,1674572136
125,constitucion,-35.3333,-72.4167,19.670000000000016,77,76,5.48,CL,1674572136
126,thompson,55.7435,-97.8558,-34.90999999999997,68,0,2.06,CA,1674572136
127,lompoc,34.6391,-120.4579,8.100000000000023,81,0,2.34,US,1674572136
128,aracoiaba,-4.3711,-38.8142,31.75,51,87,2.42,BR,1674572136
129,fomboni,-12.28,43.7425,28.29000000000002,71,100,8.03,KM,1674572136
130,natal,-5.795,-35.2094,29.360000000000014,65,75,7.2,BR,1674572137
131,kiruna,67.8557,20.2251,-12.529999999999973,92,100,2.91,SE,1674572037
132,fairbanks,64.8378,-147.7164,-19.669999999999987,77,100,0.0,US,1674571968
133,kaitangata,-46.2817,169.8464,9.460000000000036,94,26,1.91,NZ,1674572138
134,bethel,41.3712,-73.414,3.990000000000009,69,100,1.79,US,1674572138
135,mahibadhoo,3.7833,72.9667,26.0,81,100,6.87,MV,1674572138
136,isangel,-19.55,169.2667,26.52000000000004,88,51,2.29,VU,1674572138
137,torres,-29.3353,-49.7269,32.129999999999995,57,0,3.86,BR,1674572139
138,pevek,69.7008,170.3133,-25.49999999999997,74,97,0.99,RU,1674572139
139,rocha,-34.4833,-54.3333,32.54000000000002,18,2,2.5,UY,1674572139
140,egvekinot,66.3167,-179.1667,-26.549999999999983,88,10,5.81,RU,1674572139
141,leicester,52.6386,-1.1317,7.600000000000023,81,5,1.54,GB,1674572139
142,cumpas,29.9833,-109.7833,1.490000000000009,48,0,0.5,MX,1674572140
143,whitehorse,60.7161,-135.0538,1.4300000000000068,69,75,6.17,CA,1674572033
144,la ronge,55.1001,-105.2842,-14.859999999999957,85,100,2.57,CA,1674572140
145,litovko,49.2361,135.1742,-39.48999999999998,100,40,1.13,RU,1674572140
146,nivala,63.9167,24.9667,-3.6499999999999773,98,66,2.41,FI,1674572140
147,saint-philippe,-21.3585,55.7679,24.77000000000004,92,100,7.02,RE,1674572140
148,nabire,-3.3667,135.4833,24.610000000000014,91,100,0.97,ID,1674572140
149,airai,-8.9266,125.4092,16.27000000000004,95,100,0.32,TL,1674572140
150,hithadhoo,-0.6,73.0833,27.090000000000032,76,63,6.5,MV,1674572141
151,merida,20.9667,-89.6167,23.900000000000034,88,31,4.02,MX,1674572141
152,tahe,52.3333,124.7333,-34.369999999999976,99,25,1.51,CN,1674572004
153,lebu,-37.6167,-73.65,16.879999999999995,64,1,5.44,CL,1674572141
154,coquimbo,-29.9533,-71.3436,19.850000000000023,72,75,3.6,CL,1674572141
155,akureyri,65.6835,-18.0878,4.960000000000036,70,75,8.75,IS,1674572142
156,jiazi,22.8779,116.067,11.200000000000045,46,26,5.69,CN,1674572142
157,tezu,27.9167,96.1667,16.480000000000018,39,2,2.04,IN,1674572142
158,beira,-19.8436,34.8389,32.05000000000001,59,20,3.64,MZ,1674572142
159,chicama,-7.8447,-79.1469,19.30000000000001,60,62,2.75,PE,1674572142
160,fatezh,52.0891,35.8632,-0.5699999999999932,56,3,2.29,RU,1674572142
161,pangnirtung,66.1451,-65.7125,-23.99999999999997,77,75,1.03,CA,1674572142
162,penzance,50.1186,-5.5371,7.6200000000000045,70,20,4.12,GB,1674572143
163,dombas,62.0696,9.1235,-0.339999999999975,99,99,2.89,NO,1674572143
164,saint-joseph,-21.3667,55.6167,24.210000000000036,91,100,4.4,RE,1674572143
165,dingle,10.9995,122.6711,23.78000000000003,86,5,6.83,PH,1674572143
166,zunyi,27.6867,106.9072,0.7700000000000387,59,3,2.79,CN,1674572134
167,kineshma,57.4391,42.1289,-5.71999999999997,95,100,3.85,RU,1674572143
168,ornskoldsvik,63.2909,18.7153,-3.4699999999999704,100,40,2.06,SE,1674572143
169,sao gabriel da cachoeira,-0.1303,-67.0892,24.890000000000043,88,75,1.03,BR,1674572144
170,te anau,-45.4167,167.7167,10.900000000000034,80,82,0.24,NZ,1674572144
171,okha,53.5739,142.9478,-23.44999999999999,92,100,9.07,RU,1674572144
172,zhuhai,22.2769,113.5678,13.840000000000032,47,0,9.77,CN,1674572015
173,touros,-5.1989,-35.4608,29.52000000000004,57,64,5.89,BR,1674572144
174,xichang,27.8964,102.2634,3.430000000000007,74,24,1.21,CN,1674572144
175,dhidhdhoo,6.8833,73.1,24.52000000000004,85,100,1.88,MV,1674572144
176,bereda,43.2686,-7.5406,6.75,97,79,3.89,ES,1674572144
177,aksu,41.1231,80.2644,-15.259999999999991,89,12,2.01,CN,1674572145
178,kunming,25.0389,102.7183,1.9600000000000364,75,100,4.0,CN,1674572145
179,ponta do sol,32.6667,-17.1,19.510000000000048,56,37,2.98,PT,1674572145
180,mehamn,71.0357,27.8492,-0.029999999999972715,86,75,16.98,NO,1674572145
181,mahebourg,-20.4081,57.7,25.160000000000025,83,75,1.54,MU,1674572145
182,kalengwa,-13.4659,25.0027,21.610000000000014,83,100,3.79,ZM,1674572146
183,henties bay,-22.116,14.2845,20.220000000000027,71,89,7.16,NA,1674572146
184,stornoway,58.2093,-6.3865,10.980000000000018,88,75,7.2,GB,1674572146
185,saint george,37.1041,-113.5841,-0.4199999999999591,73,0,1.54,US,1674572146
186,mormugao,15.4,73.8,24.590000000000032,73,32,4.12,IN,1674572146
187,jalalabad,34.4265,70.4515,7.990000000000009,35,11,1.01,AF,1674572146
188,andenes,69.3143,16.1194,2.990000000000009,70,75,9.77,NO,1674572146
189,nanortalik,60.1432,-45.2371,-0.19999999999998863,78,100,0.64,GL,1674572146
190,nueve de julio,-35.4444,-60.8831,30.210000000000036,25,96,6.41,AR,1674572147
191,bay roberts,47.5999,-53.2648,7.410000000000025,92,100,4.92,CA,1674572147
192,smithers,54.7804,-127.1743,-0.8199999999999932,100,100,0.0,CA,1674572147
193,havre-saint-pierre,50.2334,-63.5986,-5.7999999999999545,53,0,5.66,CA,1674572147
194,bengkulu,-3.8004,102.2655,23.32000000000005,95,100,3.11,ID,1674571955
195,husavik,66.0449,-17.3389,3.5300000000000296,95,88,4.68,IS,1674572148
196,kilindoni,-7.9139,39.6668,27.730000000000018,79,100,6.08,TZ,1674572148
197,katsuura,35.1333,140.3,0.18999999999999773,50,100,14.93,JP,1674572148
198,port shepstone,-30.7414,30.455,25.700000000000045,84,2,5.6,ZA,1674572149
199,storforshei,66.4043,14.5233,-1.1200000000000045,92,20,2.06,NO,1674572149
200,victoria,22.2855,114.1577,13.470000000000027,40,7,5.81,HK,1674571876
201,barabai,-2.5833,115.3833,23.920000000000016,95,100,0.98,ID,1674572149
202,ambilobe,-13.2,49.05,23.600000000000023,96,99,5.15,MG,1674572149
203,berlevag,70.8578,29.0864,0.0,93,75,16.98,NO,1674572149
204,san cristobal,7.7669,-72.225,20.100000000000023,52,84,3.58,VE,1674572149
205,pisco,-13.7,-76.2167,23.03000000000003,78,36,3.09,PE,1674572150
206,zhigansk,66.7697,123.3711,-45.70999999999998,97,100,3.69,RU,1674571866
207,aleksandrov gay,50.147,48.5704,-6.0499999999999545,75,10,2.69,RU,1674572150
208,krasnoye-na-volge,57.5125,41.2419,-4.989999999999952,92,100,4.55,RU,1674572150
209,codrington,-38.2667,141.9667,13.360000000000014,86,35,1.3,AU,1674572151
210,gannan,47.9147,123.5031,-27.069999999999965,80,7,2.54,CN,1674572151
211,teya,60.3778,92.6267,-32.96999999999997,100,63,0.95,RU,1674572151
212,ancud,-41.8697,-73.8203,15.180000000000007,58,19,3.98,CL,1674572151
213,sistranda,63.7256,8.834,5.980000000000018,91,100,12.56,NO,1674572152
214,golubitskaya,45.3222,37.2822,4.230000000000018,68,0,4.67,RU,1674572152
215,hobyo,5.3505,48.5268,24.980000000000018,70,85,9.38,SO,1674572152
216,qiongshan,20.0058,110.3542,14.990000000000009,67,75,4.0,CN,1674572152
217,hasaki,35.7333,140.8333,-1.5499999999999545,58,100,10.74,JP,1674572153
218,boromo,11.75,-2.9333,37.68000000000001,10,38,2.55,BF,1674572153
219,harper,4.375,-7.7169,28.49000000000001,70,95,3.23,LR,1674572153
220,yellowknife,62.456,-114.3525,-13.70999999999998,78,100,2.57,CA,1674572183
221,kuytun,54.3419,101.5036,-20.359999999999985,99,100,1.88,RU,1674572153
222,vardo,70.3705,31.1107,-2.009999999999991,80,75,12.35,NO,1674572153
223,nigran,42.1415,-8.8066,13.350000000000023,45,0,6.71,ES,1674572153
224,morgantown,39.6295,-79.9559,1.7800000000000296,83,27,0.89,US,1674572154
225,saldanha,-33.0117,17.9442,21.03000000000003,59,32,7.02,ZA,1674572154
226,sydney,-33.8679,151.2073,18.680000000000007,87,28,2.48,AU,1674572274
227,taltal,-25.4,-70.4833,23.970000000000027,66,19,4.1,CL,1674572154
228,pati,-6.7559,111.038,24.700000000000045,92,99,1.16,ID,1674572154
229,challapata,-18.9,-66.7667,14.82000000000005,44,96,2.9,BO,1674572155
230,kyra,49.5776,111.9753,-30.48999999999998,90,63,1.76,RU,1674572093
231,bac lieu,9.285,105.7244,25.629999999999995,75,100,10.72,VN,1674572083
232,krasnoselkup,65.7,82.4667,-30.409999999999968,98,36,4.24,RU,1674572155
233,port alfred,-33.5906,26.891,23.310000000000002,64,64,10.72,ZA,1674572155
234,amealco,20.1833,-100.15,9.07000000000005,68,55,2.7,MX,1674572155
235,chisinau,47.0056,28.8575,-0.7599999999999909,86,100,3.6,MD,1674571875
236,puerto carreno,6.189,-67.4859,27.99000000000001,65,0,5.66,CO,1674572155
237,the valley,18.217,-63.0578,27.680000000000007,69,75,6.17,AI,1674572156
238,salinas,36.6777,-121.6555,8.090000000000032,57,0,2.44,US,1674572134
239,rotenburg,53.1167,9.4,1.8799999999999955,79,83,1.82,DE,1674572156
240,kirakira,-10.4544,161.9205,26.05000000000001,82,100,2.58,SB,1674572156
241,novikovo,51.1537,37.8879,-3.4499999999999886,79,47,2.54,RU,1674572156
242,bairiki,1.3292,172.9752,27.0,83,20,4.12,KI,1674572156
243,faya,18.3851,42.4509,17.060000000000002,66,21,3.0,SA,1674572157
244,chuy,-33.6971,-53.4616,29.140000000000043,29,0,2.01,UY,1674572157
245,axim,4.8699,-2.2405,28.870000000000005,69,38,4.14,GH,1674572157
246,kelamangalam,12.6,77.85,24.640000000000043,63,40,3.15,IN,1674572157
247,fortuna,40.5982,-124.1573,2.5100000000000477,93,0,3.6,US,1674572157
248,port elizabeth,-33.918,25.5701,22.400000000000034,79,40,12.86,ZA,1674571988
249,phangnga,8.4509,98.5298,27.02000000000004,89,54,1.62,TH,1674572109
250,mkushi,-13.6202,29.3939,21.560000000000002,89,93,3.35,ZM,1674572158
251,souillac,-20.5167,57.5167,25.210000000000036,83,75,1.54,MU,1674572158
252,thinadhoo,0.5333,72.9333,27.100000000000023,77,100,6.35,MV,1674572158
253,salinopolis,-0.6136,-47.3561,26.120000000000005,87,62,4.54,BR,1674572158
254,grindavik,63.8424,-22.4338,4.970000000000027,93,75,5.14,IS,1674572159
255,acapulco,16.8634,-99.8901,25.600000000000023,52,1,1.34,MX,1674572159
256,fernley,39.608,-119.2518,-6.810000000000002,70,0,2.11,US,1674572159
257,bac ninh,21.1833,106.05,14.050000000000011,41,7,2.29,VN,1674571864
258,cidreira,-30.1811,-50.2056,27.870000000000005,61,0,3.31,BR,1674572159
259,nioro,13.35,-15.75,34.5,22,6,1.11,GM,1674572160
260,artesia,33.8658,-118.0831,13.270000000000039,49,0,1.37,US,1674572160
261,kloulklubed,7.0419,134.2556,27.32000000000005,81,81,7.12,PW,1674572160
262,farmington,36.7281,-108.2187,-4.569999999999993,100,81,1.79,US,1674572160
263,sao filipe,14.8961,-24.4956,21.640000000000043,66,76,1.97,CV,1674572160
264,miyako,39.6367,141.9525,-8.46999999999997,65,100,6.85,JP,1674572161
265,cherdyn,60.403,56.4787,-11.899999999999977,96,100,2.73,RU,1674572161
266,okhotsk,59.3833,143.3,-23.19999999999999,82,100,4.7,RU,1674572077
267,sambava,-14.2667,50.1667,27.390000000000043,76,100,4.9,MG,1674572161
268,palmas bellas,9.2319,-80.0867,29.58000000000004,83,18,3.44,PA,1674572161
269,guerrero negro,27.9769,-114.0611,10.330000000000041,44,31,5.19,MX,1674572161
270,san ignacio,17.1561,-89.0714,20.08000000000004,94,0,0.0,BZ,1674572162
271,warka,51.7843,21.1909,3.920000000000016,85,100,1.81,PL,1674572162
272,kenitra,34.261,-6.5802,14.420000000000016,56,0,4.24,MA,1674572162
273,kavaratti,10.5669,72.642,26.32000000000005,78,100,5.18,IN,1674572162
274,yarada,17.65,83.2667,20.180000000000007,73,100,1.03,IN,1674572162
275,sinnamary,5.3833,-52.95,26.600000000000023,69,37,5.0,GF,1674572162
276,provideniya,64.3833,-173.3,-20.69999999999999,84,0,6.19,RU,1674572163
277,abu dhabi,24.4667,54.3667,22.060000000000002,65,0,4.12,AE,1674571937
278,saqqez,36.2499,46.2735,-1.6399999999999864,55,0,1.52,IR,1674572163
279,narsaq,60.9167,-46.05,-1.4499999999999886,91,100,1.95,GL,1674572163
280,oussouye,12.485,-16.5469,30.430000000000007,40,6,3.94,SN,1674572163
281,paamiut,61.994,-49.6678,-1.9699999999999704,95,100,5.24,GL,1674572163
282,caloundra,-26.8,153.1333,21.730000000000018,95,98,0.45,AU,1674572163
283,port-gentil,-0.7193,8.7815,29.980000000000018,79,40,4.63,GA,1674572164
284,hambantota,6.1241,81.1185,25.189999999999998,100,40,0.0,LK,1674572164
285,englehart,47.8169,-79.8664,-9.689999999999998,79,100,5.66,CA,1674572164
286,vallenar,-28.5708,-70.7581,27.950000000000045,38,0,2.36,CL,1674572164
287,sept-iles,50.2001,-66.3821,-4.96999999999997,72,100,3.09,CA,1674572164
288,vilcun,-38.65,-72.2333,15.410000000000025,41,75,1.92,CL,1674572164
289,luderitz,-26.6481,15.1594,22.78000000000003,56,7,14.44,NA,1674572164
290,balikpapan,-1.2675,116.8289,23.55000000000001,100,100,4.63,ID,1674572158
291,poum,-20.2333,164.0167,27.08000000000004,81,10,2.6,NC,1674572165
292,reconquista,-29.15,-59.65,37.10000000000002,24,0,4.3,AR,1674572165
293,gumdag,39.2061,54.5906,-0.8999999999999773,34,0,4.15,TM,1674572165
294,kutum,14.2,24.6667,27.260000000000048,7,53,4.34,SD,1674572165
295,telimele,10.9167,-13.3333,36.97000000000003,19,49,0.38,GN,1674572165
296,jiaonan,35.8786,119.9753,-9.489999999999952,33,0,3.4,CN,1674572165
297,tateyama,34.9833,139.8667,0.6100000000000136,55,100,15.31,JP,1674572070
298,kabanjahe,3.1001,98.4908,16.439999999999998,96,100,1.02,ID,1674572166
299,killam,52.7834,-111.8518,-0.029999999999972715,86,97,5.14,CA,1674572166
300,bajram curri,42.3554,20.0784,5.580000000000041,97,100,1.47,AL,1674572166
301,komsomolskiy,40.4272,71.7189,-2.599999999999966,68,100,1.03,UZ,1674572166
302,loandjili,-4.7561,11.8578,28.129999999999995,70,87,3.16,CG,1674572166
303,brattvag,62.6002,6.4434,10.810000000000002,76,75,8.23,NO,1674572166
304,cabinda,-5.55,12.2,31.08000000000004,62,75,2.06,AO,1674572167
305,kropotkin,45.4375,40.5756,3.8000000000000114,60,4,6.15,RU,1674572167
306,praia da vitoria,38.7333,-27.0667,17.140000000000043,77,75,7.54,PT,1674572167
307,idah,7.1065,6.7342,38.47000000000003,21,7,1.56,NG,1674572167
308,seguela,7.9611,-6.6731,35.110000000000014,29,50,2.21,CI,1674572167
309,carutapera,-1.195,-46.02,26.360000000000014,90,63,3.11,BR,1674572167
310,lichtenburg,-26.152,26.1597,32.150000000000034,17,41,2.31,ZA,1674572168
311,whyalla,-33.0333,137.5833,20.54000000000002,73,0,7.09,AU,1674572168
312,kalmunai,7.4167,81.8167,24.150000000000034,76,43,4.16,LK,1674572168
313,cockburn town,21.4612,-71.1419,25.49000000000001,68,9,6.57,TC,1674572168
314,naze,28.3667,129.4833,5.510000000000048,79,100,13.11,JP,1674572168
315,san carlos de bariloche,-41.1456,-71.3082,12.360000000000014,50,40,9.26,AR,1674572168
316,kavieng,-2.5744,150.7967,27.28000000000003,77,51,3.02,PG,1674572168
317,bandarbeyla,9.4942,50.8122,24.53000000000003,68,31,7.84,SO,1674572168
318,jingdezhen,29.2947,117.2079,-1.6200000000000045,57,0,2.2,CN,1674572169
319,dakar,14.6937,-17.4441,28.49000000000001,64,84,3.23,SN,1674572169
320,muncar,-8.4333,114.3333,25.180000000000007,88,100,1.06,ID,1674572169
321,chernyshevsk,52.5243,117.0174,-40.29999999999998,100,39,0.83,RU,1674572169
322,dunedin,-45.8742,170.5036,13.220000000000027,85,99,3.13,NZ,1674572169
323,banjarmasin,-3.3244,114.591,25.08000000000004,92,100,1.23,ID,1674571927
324,redmond,47.674,-122.1215,5.480000000000018,91,99,0.45,US,1674572170
325,mandurah,-32.55,115.7,23.920000000000016,62,0,7.6,AU,1674572170
326,cherskiy,68.75,161.3,-32.19999999999999,100,100,0.94,RU,1674572170
327,beloha,-25.1667,45.05,26.33000000000004,72,79,9.53,MG,1674572170
328,olinda,-8.0089,-34.8553,29.850000000000023,62,20,3.6,BR,1674572171
329,brodokalmak,55.5748,62.082,-6.5,90,11,4.33,RU,1674572171
330,akalkot,17.5333,76.2167,26.480000000000018,40,47,6.35,IN,1674572171
331,kysyl-syr,63.8986,122.7617,-47.43999999999997,100,100,1.81,RU,1674572171
332,skibbereen,51.55,-9.2667,10.060000000000002,94,100,2.89,IE,1674572171
333,khasan,42.4308,130.6434,-18.859999999999985,60,9,11.15,RU,1674572172
334,kerur,16.0167,75.5667,25.970000000000027,42,10,5.28,IN,1674572172
335,mao,39.8885,4.2658,10.310000000000002,71,40,8.23,ES,1674572172
336,laguna,38.421,-121.4238,4.6200000000000045,93,0,0.0,US,1674572172
337,broken hill,-31.95,141.4333,24.430000000000007,41,2,7.39,AU,1674572172
338,killybegs,54.6333,-8.45,10.840000000000032,95,100,3.73,IE,1674572172
339,coari,-4.085,-63.1414,26.660000000000025,87,88,1.14,BR,1674572172
340,kavali,14.9167,79.9833,23.120000000000005,68,68,3.54,IN,1674572173
341,aykhal,66.0,111.5,-27.879999999999967,98,100,1.36,RU,1674572173
342,visnes,59.3556,5.2242,7.340000000000032,100,75,4.63,NO,1674572173
343,nemuro,43.3236,145.575,-6.75,91,100,10.79,JP,1674572173
344,garowe,8.4054,48.4845,27.510000000000048,26,46,6.01,SO,1674572173
345,sisimiut,66.9395,-53.6735,-8.339999999999975,89,100,3.79,GL,1674572173
346,mattru,7.6244,-11.8332,35.99000000000001,38,54,1.18,SL,1674572174
347,olafsvik,64.8945,-23.7142,5.189999999999998,87,95,7.87,IS,1674572174
348,lao cai,22.4833,103.95,10.300000000000011,73,41,0.4,VN,1674572174
349,makubetsu,45.3714,141.8211,-12.129999999999995,85,100,12.38,JP,1674572174
350,mtsamboro,-12.6998,45.0689,27.620000000000005,75,100,8.06,YT,1674572174
351,kungurtug,50.5994,97.5228,-22.68999999999997,99,100,0.69,RU,1674572174
352,sitka,57.0531,-135.33,3.8799999999999955,95,100,3.23,US,1674572174
353,bilma,18.6853,12.9164,31.57000000000005,7,14,2.59,NE,1674572175
354,lorengau,-2.0226,147.2712,25.680000000000007,83,100,1.78,PG,1674572175
355,kharp,66.8014,65.8081,-13.409999999999968,90,86,4.21,RU,1674572175
356,port-cartier,50.0334,-66.8654,-5.139999999999986,83,100,2.57,CA,1674572175
357,basco,20.4487,121.9702,19.140000000000043,79,100,17.93,PH,1674572175
358,ixtapa,20.7,-105.2,21.24000000000001,82,92,1.16,MX,1674572175
359,sarkand,45.41,79.9186,-10.20999999999998,96,100,0.3,KZ,1674572175
360,aksarka,66.5606,67.7975,-12.71999999999997,90,65,3.95,RU,1674572176
361,mount gambier,-37.8333,140.7667,11.25,94,8,1.16,AU,1674572176
362,lebedinyy,58.5167,125.5167,-35.359999999999985,96,100,2.5,RU,1674572176
363,rustenburg,-25.6676,27.2421,32.81,15,0,2.03,ZA,1674572177
364,ourinhos,-22.9789,-49.8706,29.82000000000005,55,100,0.65,BR,1674572177
365,guanica,17.9716,-66.908,28.400000000000034,74,60,3.81,PR,1674572177
366,rondonopolis,-16.4708,-54.6356,27.33000000000004,79,97,1.84,BR,1674572177
367,iskateley,67.6803,53.1512,-8.810000000000002,94,100,7.56,RU,1674572177
368,mountain home,43.133,-115.6912,-10.479999999999961,91,53,0.45,US,1674572177
369,belokurikha,51.9959,84.9896,-8.009999999999991,82,100,5.19,RU,1674572178
370,valdez,1.2492,-78.9831,26.480000000000018,78,84,2.23,EC,1674572178
371,yelizovo,53.1873,158.3805,-18.829999999999984,64,0,4.02,RU,1674572178
372,millau,44.0833,2.9167,6.1200000000000045,90,11,1.0,FR,1674572178
373,sibiti,-3.6819,13.3499,25.400000000000034,76,96,1.02,CG,1674572178
374,makakilo city,21.3469,-158.0858,21.100000000000023,87,0,1.36,US,1674572178
375,itoman,26.1247,127.6694,10.010000000000048,66,75,15.95,JP,1674572066
376,dauphin,51.1494,-100.0502,-12.919999999999959,85,100,4.63,CA,1674572179
377,tono,39.3167,141.5333,-12.039999999999964,78,100,8.53,JP,1674572167
378,severo-kurilsk,50.6789,156.125,-5.3700000000000045,66,100,8.3,RU,1674572179
379,russell,32.3502,-85.1999,5.0,58,2,2.82,US,1674572179
380,alta floresta,-9.8756,-56.0861,21.600000000000023,97,100,1.29,BR,1674572179
381,losal,27.4,74.9167,15.189999999999998,41,0,3.44,IN,1674572179
382,manggar,-2.8833,108.2667,25.890000000000043,85,100,4.32,ID,1674572179
383,bend,44.0582,-121.3153,3.75,71,0,2.57,US,1674572180
384,linhares,-19.3911,-40.0722,31.920000000000016,59,65,3.9,BR,1674572180
385,port hardy,50.6996,-127.4199,5.100000000000023,100,100,3.6,CA,1674572180
386,sosnovo-ozerskoye,52.5249,111.5418,-29.44999999999999,90,100,2.65,RU,1674572180
387,hope,33.6671,-93.5916,5.600000000000023,83,65,0.69,US,1674572180
388,portland,45.5234,-122.6762,4.580000000000041,92,75,1.54,US,1674571900
389,san ramon,37.7799,-121.978,10.580000000000041,77,1,0.89,US,1674572181
390,mananjary,-21.2167,48.3333,24.120000000000005,92,100,1.26,MG,1674572181
391,sosnovo,60.5514,30.2144,0.1400000000000432,96,100,3.48,RU,1674572181
392,tiarei,-17.5333,-149.3333,25.010000000000048,80,100,4.77,PF,1674572181
393,benguela,-12.5763,13.4055,27.74000000000001,72,96,4.19,AO,1674572182
394,loa janan,-0.583,117.095,23.860000000000014,98,100,1.05,ID,1674572182
395,caravelas,-17.7125,-39.2481,31.220000000000027,57,100,5.28,BR,1674572182
396,camopi,3.1655,-52.3158,27.78000000000003,62,25,2.68,GF,1674572182
397,seydi,39.4816,62.9137,-3.4799999999999613,66,99,3.04,TM,1674572182
398,strezhevoy,60.7333,77.5889,-32.04999999999998,99,59,1.37,RU,1674572182
399,geraldton,-28.7667,114.6,22.230000000000018,83,100,5.66,AU,1674572030
400,linjiang,41.8069,126.9078,-27.619999999999976,99,79,1.03,CN,1674572183
401,buala,-8.145,159.5921,25.400000000000034,86,100,1.89,SB,1674572183
402,sheridan,44.8333,-106.9173,-4.829999999999984,81,20,2.33,US,1674572088
403,ginir,7.1333,40.7,22.04000000000002,27,64,5.27,ET,1674572183
404,lagoa,39.05,-27.9833,15.200000000000045,79,78,8.96,PT,1674572183
405,goderich,43.7501,-81.7165,1.6200000000000045,74,100,8.75,CA,1674572183
406,labuhan,-6.8844,112.2051,25.890000000000043,86,100,1.79,ID,1674572183
407,mount isa,-20.7333,139.5,26.870000000000005,61,92,3.6,AU,1674572184
408,aklavik,68.2191,-135.0107,-21.99999999999997,84,100,1.54,CA,1674572184
409,kendari,-3.945,122.4989,24.54000000000002,92,91,1.3,ID,1674571953
410,port augusta,-32.5,137.7667,21.28000000000003,68,0,5.66,AU,1674572185
411,fjerritslev,57.0813,9.2664,3.920000000000016,89,66,8.36,DK,1674572185
412,mayo,38.8876,-76.5119,6.080000000000041,62,0,3.13,US,1674572185
413,oktyabrskiy,54.4815,53.471,-17.039999999999964,100,62,2.09,RU,1674572185
414,tommot,58.9564,126.2925,-33.89999999999998,99,100,0.81,RU,1674572185
415,qaqortoq,60.7167,-46.0333,-0.48999999999995225,81,100,2.76,GL,1674572185
416,potanino,55.1786,61.6222,-6.8700000000000045,68,0,3.0,RU,1674572186
417,monterey,36.2505,-121.2516,1.2100000000000364,1,0,0.7,US,1674572186
418,jijiang,29.2906,106.2542,7.5,74,35,1.87,CN,1674572186
419,rawson,-43.3002,-65.1023,18.430000000000007,29,100,12.79,AR,1674572186
420,porto seguro,-16.4497,-39.0647,30.29000000000002,74,40,6.69,BR,1674572187
421,vermillion,42.7794,-96.9292,-6.829999999999984,95,100,2.04,US,1674572188
422,sardarshahr,28.4333,74.4833,16.610000000000014,48,39,4.81,IN,1674572188
423,akim swedru,5.8938,-1.0164,32.25,47,57,1.67,GH,1674572188
424,le port,-20.9373,55.2919,25.0,89,100,4.98,RE,1674572188
425,arcata,40.8665,-124.0828,2.660000000000025,64,91,2.67,US,1674572189
426,nantucket,41.2835,-70.0995,2.8600000000000136,73,42,10.56,US,1674572189
427,zirgan,53.2222,55.9185,-17.74999999999997,100,75,0.27,RU,1674572189
428,kulhudhuffushi,6.6221,73.07,24.189999999999998,87,100,2.8,MV,1674572189
429,maldonado,-34.6667,-54.9167,30.660000000000025,17,2,2.16,UY,1674572189
430,acarau,-2.8856,-40.12,28.24000000000001,68,65,4.0,BR,1674572189
431,rio gallegos,-51.6226,-69.2181,11.03000000000003,50,40,5.14,AR,1674572189
432,corralillo,22.9819,-80.5856,26.370000000000005,61,0,7.24,CU,1674572190
433,matehuala,23.65,-100.65,14.640000000000043,52,99,4.13,MX,1674572190
434,moratuwa,6.773,79.8816,24.010000000000048,87,100,2.5,LK,1674572190
435,kismayo,-0.3582,42.5454,26.05000000000001,78,8,7.26,SO,1674572190
436,antanifotsy,-19.65,47.3167,17.890000000000043,87,99,1.86,MG,1674572191
437,nadym,65.5333,72.5167,-9.239999999999952,95,100,7.22,RU,1674572191
438,nyimba,-14.5566,30.8149,24.200000000000045,91,73,2.0,ZM,1674572191
439,sao felix do xingu,-6.6447,-51.995,27.660000000000025,77,59,1.1,BR,1674572191
440,katherine,-14.4667,132.2667,25.180000000000007,94,100,3.09,AU,1674572191
441,huntington,38.4193,-82.4452,4.080000000000041,81,82,0.89,US,1674572191
442,dali,25.7,100.1833,7.939999999999998,50,37,2.03,CN,1674572191
443,bin qirdan,33.1378,11.2197,14.050000000000011,20,78,3.99,TN,1674572192
444,batagay,67.6333,134.6333,-47.369999999999976,98,30,1.53,RU,1674572192
445,tocopilla,-22.092,-70.1979,23.83000000000004,74,97,4.2,CL,1674572192
446,hammerfest,70.6634,23.6821,1.25,80,75,12.35,NO,1674572192
447,saint-augustin,51.226,-58.6502,-0.45999999999997954,86,100,8.71,CA,1674572192
448,ilhabela,-23.7781,-45.3581,27.49000000000001,75,100,2.75,BR,1674572192
449,mahon,39.8885,4.2658,10.310000000000002,71,40,8.23,ES,1674572193
450,kununurra,-15.7667,128.7333,25.99000000000001,89,100,3.09,AU,1674572193
451,mount pleasant,32.7941,-79.8626,10.550000000000011,61,0,2.57,US,1674572193
452,novoagansk,61.9449,76.6625,-26.069999999999965,93,97,2.78,RU,1674572193
453,tikrit,34.6071,43.6782,13.610000000000014,36,0,2.75,IQ,1674572193
454,santa vitoria do palmar,-33.5189,-53.3681,29.450000000000045,29,0,1.18,BR,1674572193
455,gympie,-26.1898,152.665,20.730000000000018,95,94,0.89,AU,1674572194
456,ucluelet,48.9329,-125.5528,8.379999999999995,93,100,0.4,CA,1674572194
457,mushie,-3.0167,16.9,31.510000000000048,55,98,1.56,CD,1674572194
458,gorom-gorom,14.4439,-0.2361,36.200000000000045,8,1,1.98,BF,1674572195
459,wau,7.7029,27.9953,36.120000000000005,12,91,2.74,SS,1674572195
460,iqaluit,63.7506,-68.5145,-25.149999999999977,77,100,6.69,CA,1674571986
461,ulladulla,-35.35,150.4667,19.02000000000004,92,96,0.95,AU,1674572061
462,los llanos de aridane,28.6585,-17.9182,18.860000000000014,68,75,4.92,ES,1674572195
463,butembo,0.15,29.2833,18.78000000000003,65,100,2.08,CD,1674572195
464,cap malheureux,-19.9842,57.6142,24.700000000000045,81,100,1.34,MU,1674572195
465,vila franca do campo,37.7167,-25.4333,17.230000000000018,70,87,5.34,PT,1674572195
466,marondera,-18.1853,31.5519,19.950000000000045,76,91,0.74,ZW,1674572196
467,kohlu,29.8962,69.252,5.180000000000007,21,0,3.38,PK,1674572196
468,bridgwater,51.1284,-3.0036,6.160000000000025,80,15,0.88,GB,1674572196
469,kuloy,61.0305,42.4925,-6.949999999999989,92,100,3.9,RU,1674572196
470,erdenet,49.0333,104.0833,-24.299999999999983,86,100,2.2,MN,1674572196
471,palmer,42.1584,-72.3287,3.0600000000000023,79,100,0.89,US,1674572197
472,raudeberg,61.9875,5.1352,9.930000000000007,23,100,13.16,NO,1674572197
473,scarborough,54.2797,-0.4044,8.140000000000043,85,29,0.45,GB,1674571957
474,makokou,0.5738,12.8642,30.010000000000048,46,93,1.6,GA,1674572197
475,camarillo,34.2164,-119.0376,11.830000000000041,49,0,1.34,US,1674572197
476,klaksvik,62.2266,-6.589,8.510000000000048,92,100,14.72,FO,1674572198
477,panorama,40.5878,23.0315,8.310000000000002,88,75,1.03,GR,1674572198
478,tambopata,-12.7333,-69.1833,26.939999999999998,83,75,3.09,PE,1674572198
479,walvis bay,-22.9575,14.5053,21.160000000000025,59,99,9.84,NA,1674572198
480,coihaique,-45.5752,-72.0662,13.340000000000032,66,75,3.09,CL,1674572198
481,evensk,61.95,159.2333,-13.25,88,100,9.12,RU,1674572198
482,kondinskoye,59.6481,67.41,-9.509999999999991,92,56,3.73,RU,1674572198
483,jalu,29.0331,21.5482,19.77000000000004,27,0,5.86,LY,1674572199
484,pychas,56.5033,52.4409,-14.349999999999966,97,100,2.91,RU,1674572199
485,tabory,58.5198,64.5495,-8.519999999999982,95,33,2.6,RU,1674572199
486,keokuk,40.3973,-91.3849,0.18000000000000682,100,100,2.06,US,1674572199
487,cabo san lucas,22.8909,-109.9124,16.450000000000045,80,98,4.14,MX,1674572199
488,santa rosa,14.3122,121.1114,26.99000000000001,78,100,7.95,PH,1674572199
489,nanchang,28.6833,115.8833,0.9900000000000091,52,51,3.62,CN,1674572074
490,makarov,48.6333,142.8,-18.359999999999985,98,100,4.08,RU,1674572200
491,bolitoc,15.7395,119.8769,24.560000000000002,75,66,3.79,PH,1674572200
492,san vicente,-26.6167,-54.1333,34.210000000000036,24,0,1.12,AR,1674572200
493,havoysund,70.9963,24.6622,0.12999999999999545,68,99,18.22,NO,1674572200
494,tuatapere,-46.1333,167.6833,7.890000000000043,93,10,1.63,NZ,1674572200
495,sur,22.5667,59.5289,19.850000000000023,51,69,5.55,OM,1674572201
496,charyshskoye,51.3978,83.5598,-11.259999999999991,86,100,2.77,RU,1674572201
497,dolores,-36.3132,-57.6792,31.07000000000005,25,87,5.74,AR,1674572201
498,sipe sipe,-17.45,-66.3833,20.420000000000016,48,99,0.27,BO,1674572201
499,soe,-9.8607,124.284,19.30000000000001,95,100,0.98,ID,1674572201
500,loralai,30.3705,68.598,2.8700000000000045,34,0,6.89,PK,1674572201
501,morehead,37.2711,-87.1764,2.660000000000025,92,0,0.45,US,1674572201
502,skjervoy,70.0311,20.9714,3.0,78,100,18.62,NO,1674572201
503,port hedland,-20.3167,118.5667,28.03000000000003,83,22,1.54,AU,1674572055
504,kayerkan,69.3497,87.7602,-29.70999999999998,75,95,2.83,RU,1674572202
505,birnin kebbi,12.4539,4.1975,37.05000000000001,7,42,4.22,NG,1674572202
506,bukama,-9.2,25.85,25.07000000000005,86,69,1.21,CD,1674572202
507,ulaangom,49.9811,92.0667,-23.029999999999973,99,100,0.48,MN,1674572202
508,tacoronte,28.4769,-16.4102,16.810000000000002,74,75,2.68,ES,1674572202
509,meadow lake,34.8014,-106.5436,-0.48999999999995225,80,58,3.35,US,1674572203
510,hualmay,-11.0964,-77.6139,23.629999999999995,71,93,3.48,PE,1674572203
511,amarpatan,24.3167,80.9833,20.30000000000001,38,13,1.74,IN,1674572203
512,camacupa,-12.0167,17.4833,20.890000000000043,76,98,1.68,AO,1674572203
513,gualeguaychu,-33.0094,-58.5172,35.110000000000014,19,15,3.74,AR,1674572203
514,qasigiannguit,68.8193,-51.1922,-8.579999999999984,80,100,1.3,GL,1674572203
515,taunggyi,20.7833,97.0333,12.210000000000036,43,3,1.09,MM,1674572203
516,comodoro rivadavia,-45.8667,-67.5,18.920000000000016,26,0,11.32,AR,1674572204
517,coos bay,43.3665,-124.2179,3.2900000000000205,85,8,2.35,US,1674572204
518,severnyy,50.677,36.5532,-1.9799999999999613,64,0,3.0,RU,1674572204
519,okato,-39.2,173.8833,17.879999999999995,94,90,1.79,NZ,1674572204
520,hovd,48.0056,91.6419,-20.159999999999968,77,100,0.12,MN,1674572204
521,erenhot,43.6475,111.9767,-18.119999999999976,66,96,6.63,CN,1674572204
522,am timan,11.0297,20.2827,35.410000000000025,7,99,2.51,TD,1674572205
523,hay river,60.8156,-115.7999,-13.009999999999991,85,75,5.66,CA,1674572205
524,jobner,26.9667,75.3833,14.680000000000007,39,0,3.83,IN,1674572205
525,puerto gaitan,4.3133,-72.0816,31.04000000000002,42,96,6.91,CO,1674572205
526,alto longa,-5.2511,-42.2103,32.51000000000005,54,53,0.76,BR,1674572206
527,ostrovnoy,68.0531,39.5131,-3.1399999999999864,79,8,11.09,RU,1674572206
528,grevesmuhlen,53.8667,11.1833,1.5500000000000114,87,58,0.21,DE,1674572206
529,tabou,4.423,-7.3528,28.879999999999995,68,89,3.68,CI,1674572206
530,azanka,58.0401,64.7893,-8.569999999999993,95,43,2.97,RU,1674572206
531,masallatah,32.6167,14.0,15.28000000000003,62,55,3.21,LY,1674572207
532,gushikawa,26.3544,127.8686,9.57000000000005,73,75,8.75,JP,1674572207
533,bathsheba,13.2167,-59.5167,28.340000000000032,57,20,11.32,BB,1674572207
534,pital,2.2665,-75.8044,25.879999999999995,60,74,1.59,CO,1674572207
535,roebourne,-20.7833,117.1333,29.260000000000048,67,47,2.38,AU,1674572207
536,yerofey pavlovich,53.9667,121.9667,-30.829999999999984,94,100,1.27,RU,1674572208
537,zheshart,62.0731,49.5733,-10.70999999999998,95,100,3.04,RU,1674572208
538,sohag,26.557,31.6948,22.160000000000025,25,0,5.37,EG,1674572208
539,san jose,37.3394,-121.895,9.550000000000011,71,0,0.89,US,1674571979
540,cantanhede,-3.6333,-44.3767,27.900000000000034,79,59,1.37,BR,1674572208
541,gondar,12.6,37.4667,22.75,17,17,4.57,ET,1674572208
542,millinocket,45.6573,-68.7098,-1.4399999999999977,75,100,3.82,US,1674572208
543,vestmannaeyjar,63.4427,-20.2734,5.550000000000011,93,75,8.23,IS,1674572208
544,masyaf,35.0653,36.3406,11.330000000000041,69,4,2.51,SY,1674572209
545,kampli,15.4,76.6167,25.04000000000002,45,7,4.35,IN,1674572209
546,sivaki,52.6333,126.75,-35.75999999999999,97,46,1.56,RU,1674572209
547,uyemskiy,64.4743,40.8524,-3.9699999999999704,100,75,4.0,RU,1674572209
