City_ID,City,Lat,Lng,Max Temp,Humidity,Cloudiness,Wind Speed,Country,Date
0,punta arenas,-53.15,-70.9167,279.21,70,20,6.69,CL,1674554803
1,hobart,-42.8794,147.3294,293.07,79,40,3.09,AU,1674554153
2,ribeira grande,38.5167,-28.7,289.14,94,75,7.2,PT,1674554803
3,isangel,-19.55,169.2667,300.37,85,99,2.6,VU,1674554804
4,ushuaia,-54.8,-68.3,278.26,87,8,3.92,AR,1674554804
5,te anau,-45.4167,167.7167,284.85,77,37,1.72,NZ,1674554804
6,mataura,-46.1927,168.8643,281.96,87,5,1.31,NZ,1674554804
7,taungdwingyi,20.0167,95.55,304.61,15,6,2.96,MM,1674554804
8,lompoc,34.6391,-120.4579,279.03,93,0,3.09,US,1674554602
9,alofi,-19.0595,-169.9187,299.93,75,9,4.1,NU,1674554805
10,geraldton,-28.7667,114.6,297.38,73,75,8.75,AU,1674554643
11,kyren,51.6828,102.1408,256.1,98,100,0.47,RU,1674554805
12,rikitea,-23.1203,-134.9692,298.99,77,1,6.99,PF,1674554805
13,mae hong son,19.3003,97.9685,305.9,21,2,0.59,TH,1674554805
14,barrow,71.2906,-156.7887,252.16,77,100,10.8,US,1674554806
15,lac du bonnet,50.2536,-96.0612,256.18,98,100,1.1,CA,1674554806
16,georgetown,5.4112,100.3354,302.11,79,40,2.06,MY,1674554643
17,carnarvon,-24.8667,113.6333,298.63,75,3,11.36,AU,1674554806
18,lavrentiya,65.5833,-171.0,246.9,95,21,4.85,RU,1674554806
19,bethel,41.3712,-73.414,275.09,74,75,2.57,US,1674554807
20,saldanha,-33.0117,17.9442,291.78,66,83,8.48,ZA,1674554807
21,severo-kurilsk,50.6789,156.125,264.1,66,67,4.42,RU,1674554807
22,pout,14.7739,-17.0603,293.57,100,40,1.54,SN,1674554808
23,walvis bay,-22.9575,14.5053,294.7,61,100,7.21,NA,1674554808
24,ponta do sol,32.6667,-17.1,291.55,60,7,3.46,PT,1674554808
25,hovd,48.0056,91.6419,254.13,70,100,0.79,MN,1674554808
26,wairoa,-39.0333,177.3667,290.68,75,87,0.89,NZ,1674554808
27,saint george,37.1041,-113.5841,274.48,65,0,1.54,US,1674554808
28,narsaq,60.9167,-46.05,267.27,97,100,1.63,GL,1674554809
29,jining,35.405,116.5814,265.2,16,0,2.7,CN,1674554809
30,yulara,-25.2406,130.9889,306.72,16,97,2.45,AU,1674554809
31,new norfolk,-42.7826,147.0587,292.87,63,79,0.45,AU,1674554809
32,cabo san lucas,22.8909,-109.9124,290.1,75,93,2.9,MX,1674554685
33,pitimbu,-7.4706,-34.8086,299.48,74,15,4.65,BR,1674554809
34,provideniya,64.3833,-173.3,252.23,87,2,5.19,RU,1674554810
35,klaksvik,62.2266,-6.589,281.66,88,100,14.01,FO,1674554810
36,faya,18.3851,42.4509,291.44,54,15,4.68,SA,1674554810
37,shiyan,32.6475,110.7781,272.82,21,0,3.59,CN,1674554811
38,arraial do cabo,-22.9661,-42.0278,297.07,94,75,2.57,BR,1674554811
39,butaritari,3.0707,172.7902,300.51,80,98,7.9,KI,1674554811
40,nemuro,43.3236,145.575,270.82,71,98,5.97,JP,1674554543
41,buraydah,26.326,43.975,291.84,45,89,5.37,SA,1674554811
42,kataysk,56.289,62.5841,266.04,90,11,3.54,RU,1674554811
43,cockburn town,21.4612,-71.1419,298.48,68,0,6.37,TC,1674554812
44,japura,-0.3167,102.35,298.61,88,100,2.43,ID,1674554812
45,kaohsiung,22.6163,120.3133,290.12,58,40,5.14,TW,1674554701
46,albany,42.6001,-73.9662,273.47,85,90,0.89,US,1674554812
47,yellowknife,62.456,-114.3525,258.46,84,100,4.47,CA,1674554730
48,cape town,-33.9258,18.4232,294.47,48,97,2.68,ZA,1674554672
49,hualmay,-11.0964,-77.6139,294.11,82,100,2.37,PE,1674554812
50,suntar,62.1444,117.6319,244.53,98,100,1.59,RU,1674554813
51,fort nelson,58.8053,-122.7002,260.36,98,100,0.29,CA,1674554813
52,khandyga,62.6667,135.6,224.36,100,51,1.05,RU,1674554813
53,bagdarin,54.4333,113.6,241.97,93,65,1.28,RU,1674554813
54,oyama,36.3,139.8,277.92,34,75,7.21,JP,1674554589
55,vaini,-21.2,-175.2,300.24,89,40,3.09,TO,1674554813
56,malumfashi,11.7853,7.6218,301.76,12,14,5.49,NG,1674554814
57,bluff,-46.6,168.3333,285.49,70,5,5.04,NZ,1674554814
58,jamestown,42.097,-79.2353,271.92,53,100,8.23,US,1674554814
59,kaitangata,-46.2817,169.8464,284.16,82,14,3.13,NZ,1674554814
60,pisco,-13.7,-76.2167,293.18,88,100,4.12,PE,1674554814
61,svetlogorsk,52.6333,29.7333,275.22,55,13,1.91,BY,1674554815
62,iqaluit,63.7506,-68.5145,252.48,98,100,1.08,CA,1674554815
63,chokurdakh,70.6333,147.9167,242.22,92,100,0.73,RU,1674554815
64,tandil,-37.3217,-59.1332,289.51,66,50,2.8,AR,1674554815
65,caraballeda,10.6112,-66.8522,301.19,74,40,1.54,VE,1674554815
66,port elizabeth,-33.918,25.5701,297.77,71,75,9.77,ZA,1674554815
67,constitucion,-35.3333,-72.4167,289.59,92,71,0.42,CL,1674554816
68,gorin,51.1983,136.6669,237.25,98,59,1.61,RU,1674554816
69,mabaruma,8.2,-59.7833,293.88,98,66,1.13,GY,1674554816
70,puerto ayora,-0.7393,-90.3518,295.68,97,77,1.05,EC,1674554817
71,port alfred,-33.5906,26.891,296.03,77,65,3.13,ZA,1674554817
72,mar del plata,-38.0023,-57.5575,291.41,77,4,4.47,AR,1674554817
73,sitka,57.0531,-135.33,279.09,81,100,3.6,US,1674554817
74,khatanga,71.9667,102.5,233.62,96,75,2.95,RU,1674554818
75,kavieng,-2.5744,150.7967,301.12,77,86,4.18,PG,1674554818
76,egvekinot,66.3167,-179.1667,246.7,87,11,5.83,RU,1674554818
77,dalvik,65.9702,-18.5286,277.09,89,85,3.84,IS,1674554818
78,chuy,-33.6971,-53.4616,290.59,75,0,1.89,UY,1674554818
79,comodoro rivadavia,-45.8667,-67.5,288.39,42,100,9.5,AR,1674554818
80,kamenka,51.3223,42.7678,270.55,62,87,2.07,RU,1674554819
81,terme,41.2092,36.9739,282.11,75,100,1.89,TR,1674554819
82,nikolskoye,59.7035,30.7861,271.09,94,100,5.05,RU,1674554819
83,qaanaaq,77.484,-69.3632,249.09,64,29,2.06,GL,1674554819
84,tura,25.5198,90.2201,297.65,32,88,2.42,IN,1674554819
85,kapaa,22.0752,-159.319,294.33,88,0,3.09,US,1674554819
86,stornoway,58.2093,-6.3865,283.73,94,75,7.2,GB,1674554820
87,aswan,24.0934,32.907,297.55,16,0,4.31,EG,1674554820
88,tarapur,19.85,72.7,295.0,51,25,7.92,IN,1674554820
89,saint anthony,45.0205,-93.218,267.03,88,0,3.09,US,1674554820
90,beeville,28.4008,-97.7483,285.25,82,100,4.12,US,1674554820
91,muzhi,65.3667,64.6667,262.09,93,79,1.64,RU,1674554820
92,plettenberg bay,-34.0527,23.3716,296.4,60,84,4.58,ZA,1674554821
93,rosetta,31.4044,30.4164,291.67,61,0,5.76,EG,1674554734
94,pontianak,-0.0333,109.3333,301.14,78,20,4.12,ID,1674554794
95,saskylakh,71.9167,114.0833,250.38,99,100,1.75,RU,1674554821
96,novoorsk,51.381,58.9813,261.23,94,23,0.91,RU,1674554821
97,dikson,73.5069,80.5464,252.22,96,100,16.44,RU,1674554822
98,storforshei,66.4043,14.5233,275.03,75,75,1.03,NO,1674554822
99,luderitz,-26.6481,15.1594,297.26,47,33,9.15,NA,1674554822
100,tombouctou,20.0,-3.0,296.19,12,0,5.19,ML,1674554822
101,bredasdorp,-34.5322,20.0403,291.21,61,54,8.41,ZA,1674554822
102,hazebrouck,50.7237,2.5373,275.88,89,14,4.6,FR,1674554822
103,ustye,59.6304,39.736,266.7,92,99,4.8,RU,1674554823
104,busselton,-33.65,115.3333,296.0,57,0,10.42,AU,1674554823
105,clyde river,70.4692,-68.5914,240.34,90,100,2.31,CA,1674554823
106,atuona,-9.8,-139.0333,299.13,74,10,8.9,PF,1674554824
107,amapa,1.0,-52.0,293.69,100,100,0.76,BR,1674554824
108,santo angelo,-28.2992,-54.2631,296.17,41,0,1.59,BR,1674554824
109,usak,38.5,29.4167,286.14,47,2,1.18,TR,1674554824
110,haveli,30.4502,73.6989,293.27,34,92,1.96,PK,1674554824
111,savannah bight,16.45,-85.85,299.02,76,4,6.87,HN,1674554824
112,souillac,-20.5167,57.5167,299.02,70,100,0.72,MU,1674554825
113,boqueirao,-7.5,-36.1333,297.24,76,36,3.0,BR,1674554825
114,lampang,18.3333,99.5,306.82,5,1,2.93,TH,1674554825
115,anqing,30.5092,117.0506,273.77,32,2,4.74,CN,1674554825
116,betsiamites,48.9413,-68.646,263.2,88,55,2.53,CA,1674554825
117,rocha,-34.4833,-54.3333,289.84,67,0,2.16,UY,1674554825
118,kodiak,57.79,-152.4072,275.88,75,40,2.57,US,1674554826
119,mount isa,-20.7333,139.5,308.02,24,71,2.06,AU,1674554826
120,myitkyina,25.3833,97.4,299.2,30,1,0.59,MM,1674554826
121,kirakira,-10.4544,161.9205,299.26,86,99,2.35,SB,1674554826
122,lethem,3.3803,-59.7968,294.8,86,26,3.78,GY,1674554827
123,lebu,-37.6167,-73.65,287.06,90,64,4.77,CL,1674554827
124,caramay,10.1815,119.236,299.39,80,99,5.84,PH,1674554641
125,avera,33.194,-82.5271,270.88,75,0,1.31,US,1674554827
126,nizwa,22.9333,57.5333,290.81,57,83,1.24,OM,1674554827
127,weil der stadt,48.75,8.8667,275.97,89,100,2.85,DE,1674554828
128,hervey bay,-25.2986,152.8535,299.83,77,0,3.13,AU,1674554828
129,padang,-0.9492,100.3543,301.18,86,100,2.65,ID,1674554725
130,thompson,55.7435,-97.8558,237.11,100,13,1.21,CA,1674554828
131,grua,60.2667,10.6667,272.96,96,100,0.44,NO,1674554828
132,college,64.8569,-147.8028,252.92,79,100,1.54,US,1674554829
133,paamiut,61.994,-49.6678,271.13,94,100,8.58,GL,1674554829
134,airai,-8.9266,125.4092,290.5,92,100,0.81,TL,1674554829
135,novichikha,52.204,81.3877,263.99,94,100,5.43,RU,1674554829
136,pacific grove,36.6177,-121.9166,279.01,65,0,0.0,US,1674554829
137,elizabethtown,37.694,-85.8591,272.05,93,0,2.06,US,1674554829
138,marawi,7.9986,124.2928,293.89,98,100,1.43,PH,1674554830
139,cherskiy,68.75,161.3,243.04,98,100,1.08,RU,1674554830
140,la ronge,55.1001,-105.2842,255.93,98,99,1.66,CA,1674554830
141,nuuk,64.1835,-51.7216,271.49,93,100,13.38,GL,1674554831
142,houston,29.7633,-95.3633,286.15,74,100,7.72,US,1674554716
143,turukhansk,65.8167,87.9833,241.14,89,8,3.04,RU,1674554831
144,castro,-24.7911,-50.0119,290.27,91,19,0.5,BR,1674554831
145,torbay,47.6666,-52.7314,279.97,97,100,15.95,CA,1674554831
146,saint-philippe,-21.3585,55.7679,298.92,88,100,3.71,RE,1674554831
147,sao joao da barra,-21.6403,-41.0511,298.2,91,100,3.01,BR,1674554831
148,french harbor,16.35,-86.4333,295.97,99,4,7.72,HN,1674554832
149,tuktoyaktuk,69.4541,-133.0374,250.28,97,100,3.6,CA,1674554832
150,batagay,67.6333,134.6333,227.53,96,85,1.68,RU,1674554832
151,payette,44.0782,-116.9338,267.23,79,0,0.0,US,1674554832
152,hermanus,-34.4187,19.2345,291.37,66,88,9.16,ZA,1674554832
153,longyearbyen,78.2186,15.6401,270.06,86,100,10.29,SJ,1674554803
154,kruisfontein,-34.0033,24.7314,295.31,53,95,10.14,ZA,1674554833
155,tiarei,-17.5333,-149.3333,298.16,82,100,4.77,PF,1674554833
156,coahuayana,18.7333,-103.6833,291.53,78,52,2.12,MX,1674554833
157,buala,-8.145,159.5921,298.98,84,100,0.89,SB,1674554833
158,gubkinskiy,64.434,76.5026,246.0,93,99,4.38,RU,1674554834
159,san felipe,10.3399,-68.7425,294.41,99,100,1.06,VE,1674554834
160,broome,42.2506,-75.833,273.07,81,20,6.17,US,1674554834
161,vila velha,-20.3297,-40.2925,296.12,97,75,1.54,BR,1674554834
162,avarua,-21.2078,-159.775,296.18,100,96,0.51,CK,1674554834
163,ancud,-41.8697,-73.8203,284.09,80,23,2.23,CL,1674554834
164,martapura,-3.4167,114.85,299.2,94,40,1.03,ID,1674554835
165,gweta,-20.1833,25.2333,299.9,50,98,6.98,BW,1674554835
166,east london,-33.0153,27.9116,300.67,57,0,10.29,ZA,1674554765
167,rosarito,32.3333,-117.0333,282.68,42,0,0.82,MX,1674554835
168,san rafael,-34.6177,-68.3301,295.87,62,0,1.48,AR,1674554835
169,tuatapere,-46.1333,167.6833,282.66,85,2,1.07,NZ,1674554835
170,nouadhibou,20.931,-17.0347,290.29,62,0,7.04,MR,1674554836
171,port augusta,-32.5,137.7667,295.49,67,0,8.53,AU,1674554836
172,dingle,10.9995,122.6711,297.35,84,48,5.6,PH,1674554836
173,lagoa,39.05,-27.9833,288.59,75,100,7.6,PT,1674554836
174,coquimbo,-29.9533,-71.3436,291.0,82,100,1.03,CL,1674554836
175,kahului,20.8947,-156.47,295.84,88,0,2.06,US,1674554837
176,xining,36.6167,101.7667,268.04,13,0,0.31,CN,1674554833
177,ales,44.1333,4.0833,278.75,50,73,2.64,FR,1674554551
178,chivay,-15.6383,-71.6011,278.92,98,100,0.87,PE,1674554837
179,grindavik,63.8424,-22.4338,277.41,93,75,6.69,IS,1674554837
180,deputatskiy,69.3,139.9,236.25,98,100,1.22,RU,1674554837
181,warmbad,-28.45,18.7333,297.81,28,59,5.88,NA,1674554837
182,yamada,39.4667,141.95,268.24,62,100,5.87,JP,1674554578
183,murgab,37.4966,61.9714,273.61,44,5,4.11,TM,1674554838
184,mount gambier,-37.8333,140.7667,287.85,81,30,2.9,AU,1674554789
185,pangody,65.85,74.4859,251.12,97,100,6.83,RU,1674554838
186,cap malheureux,-19.9842,57.6142,296.96,83,100,4.21,MU,1674554838
187,san luis obispo,35.3666,-120.5343,280.54,82,0,0.0,US,1674554838
188,dunedin,-45.8742,170.5036,286.93,65,54,0.89,NZ,1674554720
189,atar,20.5169,-13.0499,296.01,13,1,2.97,MR,1674554839
190,gornoye loo,43.7129,39.6049,284.03,48,0,0.96,RU,1674554839
191,sydney,-33.8679,151.2073,297.39,83,75,8.23,AU,1674554732
192,mansa,29.9833,75.3833,291.67,68,87,3.22,IN,1674554839
193,surajgarh,28.3124,75.7347,294.68,53,45,5.93,IN,1674554839
194,eureka,40.8021,-124.1637,276.49,74,12,2.12,US,1674554839
195,sahuaripa,29.05,-109.2333,276.08,56,0,0.4,MX,1674554840
196,wenling,28.3669,121.36,274.36,53,49,9.27,CN,1674554840
197,peniche,39.3558,-9.3811,280.53,79,0,1.64,PT,1674554840
198,butembo,0.15,29.2833,298.73,32,100,1.77,CD,1674554840
199,san diego,32.7153,-117.1573,285.05,50,0,4.63,US,1674554743
200,bontang,0.1333,117.5,300.62,81,98,3.19,ID,1674554841
201,caravelas,-17.7125,-39.2481,299.29,82,100,4.05,BR,1674554841
202,mnogovershinnyy,53.9353,139.9242,239.79,98,100,1.47,RU,1674554841
203,tecoanapa,16.5167,-98.75,294.99,69,0,0.93,MX,1674554841
204,innisfail,-17.5333,146.0333,298.81,85,62,1.7,AU,1674554841
205,christchurch,-43.5333,172.6333,288.33,79,100,4.63,NZ,1674554753
206,nantucket,41.2835,-70.0995,274.23,74,100,5.66,US,1674554842
207,maliq,40.7058,20.6997,277.67,85,72,0.96,AL,1674554842
208,fortuna,40.5982,-124.1573,276.34,100,100,3.6,US,1674554842
209,cuautepec,16.7,-99.0,294.56,65,1,1.27,MX,1674554843
210,sabang,5.8933,95.3214,298.7,83,98,10.06,ID,1674554843
211,los llanos de aridane,28.6585,-17.9182,289.01,74,75,4.12,ES,1674554843
212,victoria,22.2855,114.1577,289.18,42,11,6.71,HK,1674554762
213,san cristobal,7.7669,-72.225,290.44,82,76,1.73,VE,1674554843
214,mokhsogollokh,61.4681,128.9203,234.0,98,100,1.3,RU,1674554564
215,hirara,24.8,125.2833,285.46,74,100,18.96,JP,1674554843
216,esperance,-33.8667,121.9,297.75,57,4,9.86,AU,1674554843
217,huntington,38.4193,-82.4452,273.08,90,0,2.57,US,1674554844
218,hilton head island,32.2163,-80.7526,279.81,78,0,4.12,US,1674554844
219,poli,-3.3333,36.8,298.85,38,99,2.3,TZ,1674554844
220,kupang,-10.1667,123.5833,302.47,79,75,2.06,ID,1674554818
221,conceicao do araguaia,-8.2578,-49.2647,295.24,96,36,1.1,BR,1674554844
222,galle,6.0367,80.217,299.1,80,97,1.24,LK,1674554643
223,tambovka,50.0969,128.0489,236.74,100,58,1.22,RU,1674554845
224,sim,54.993,57.6982,266.07,90,92,1.22,RU,1674554845
225,tasiilaq,65.6145,-37.6368,266.24,63,100,3.2,GL,1674554845
226,vardo,70.3705,31.1107,272.14,74,0,13.89,NO,1674554845
227,riyadh,24.6877,46.7219,291.23,52,51,5.71,SA,1674554702
228,guarapari,-20.6667,-40.4975,295.87,94,100,2.11,BR,1674554846
229,bengkulu,-3.8004,102.2655,297.48,93,100,5.31,ID,1674554705
230,vao,-22.6667,167.4833,299.08,79,36,1.56,NC,1674554846
231,gogrial,8.5332,28.1004,308.37,12,49,3.1,SS,1674554846
232,tayu,-6.5397,111.0518,300.36,85,99,3.64,ID,1674554846
233,guiyang,26.5833,106.7167,277.9,41,2,4.25,CN,1674554705
234,santander jimenez,24.2167,-98.4667,291.87,84,100,2.05,MX,1674554847
235,katsuura,35.1333,140.3,280.33,52,80,10.46,JP,1674554817
236,prince rupert,54.3161,-130.3201,278.65,91,100,2.28,CA,1674554847
237,hilo,19.7297,-155.09,296.08,86,75,2.57,US,1674554847
238,guerrero negro,27.9769,-114.0611,284.33,41,3,3.21,MX,1674554848
239,sotnikovo,51.8845,107.4791,243.2,63,20,2.0,RU,1674554848
240,ribeirao branco,-24.2208,-48.7656,291.88,98,65,0.7,BR,1674554848
241,manado,1.487,124.8455,299.58,94,40,0.51,ID,1674554848
242,hay river,60.8156,-115.7999,261.58,96,100,2.07,CA,1674554848
243,ocean city,39.2776,-74.5746,276.16,75,7,2.68,US,1674554849
244,faanui,-16.4833,-151.75,299.37,73,100,4.99,PF,1674554849
245,cidreira,-30.1811,-50.2056,296.3,87,3,2.22,BR,1674554849
246,alcala de henares,40.4821,-3.36,276.77,67,75,3.6,ES,1674554849
247,ilulissat,69.2167,-51.1,268.16,58,75,10.8,GL,1674554849
248,matagami,49.7502,-77.6328,260.21,85,100,8.75,CA,1674554849
249,sarkand,45.41,79.9186,263.66,93,100,2.14,KZ,1674554850
250,mandalgovi,45.7625,106.2708,253.14,71,98,2.52,MN,1674554850
251,codrington,-38.2667,141.9667,288.96,87,14,3.5,AU,1674554850
252,rio gallegos,-51.6226,-69.2181,282.06,57,19,2.16,AR,1674554850
253,samarai,-10.6167,150.6667,301.49,77,100,5.95,PG,1674554850
254,marigot,18.0667,-63.0833,298.17,67,27,7.91,MF,1674554557
255,muisne,0.6,-80.0333,296.75,91,66,1.76,EC,1674554851
256,guane,22.2025,-84.0875,292.79,93,5,2.96,CU,1674554851
257,sao filipe,14.8961,-24.4956,294.23,65,6,2.8,CV,1674554851
258,yuncheng,35.0231,110.9928,267.84,18,3,3.24,CN,1674554851
259,pravdinskiy,56.0667,37.85,272.2,93,88,3.24,RU,1674554851
260,cortez,37.3489,-108.5859,266.57,93,100,2.06,US,1674554852
261,kloulklubed,7.0419,134.2556,297.43,83,100,6.77,PW,1674554852
262,fuxin,42.0156,121.6589,257.58,32,0,3.22,CN,1674554852
263,suffolk,40.8668,-72.7996,276.1,73,100,4.63,US,1674554852
264,loubomo,-4.1997,12.6739,301.0,68,95,0.93,CG,1674554852
265,mopipi,-21.1833,24.8833,303.53,37,42,4.67,BW,1674554852
266,kilrush,52.6397,-9.4833,280.01,92,100,2.27,IE,1674554853
267,ongandjera,-17.8833,15.0667,297.05,60,100,3.61,NA,1674554853
268,nhulunbuy,-12.2333,136.7667,301.49,83,100,2.57,AU,1674554853
269,samana,19.2056,-69.3369,295.26,90,27,1.63,DO,1674554853
270,kendari,-3.945,122.4989,299.69,84,100,0.54,ID,1674554853
271,kijang,35.2442,129.2139,264.83,55,0,9.01,KR,1674554854
272,rockland,41.1668,-74.0496,275.07,75,12,0.89,US,1674554714
273,volchansk,59.9378,60.081,268.45,78,35,4.17,RU,1674554854
274,puerto colombia,10.9878,-74.9547,299.2,84,100,9.05,CO,1674554854
275,nishihara,26.1842,127.7558,283.75,71,75,19.55,JP,1674554846
276,vila franca do campo,37.7167,-25.4333,288.38,87,67,5.53,PT,1674554854
277,hithadhoo,-0.6,73.0833,300.45,75,84,6.29,MV,1674554855
278,tubuala,9.5167,-79.0333,299.44,85,86,5.47,PA,1674554855
279,bhan,26.5583,67.7214,293.02,16,0,2.59,PK,1674554856
280,bathsheba,13.2167,-59.5167,298.49,73,20,7.72,BB,1674554856
281,sola,-13.8833,167.55,301.17,70,98,3.18,VU,1674554856
282,puerto escondido,15.85,-97.0667,296.96,71,0,1.67,MX,1674554856
283,san juan,-31.5375,-68.5364,299.32,41,0,6.71,AR,1674554857
284,bereda,43.2686,-7.5406,278.79,99,63,3.41,ES,1674554857
285,churapcha,62.0025,132.4325,230.62,100,100,1.98,RU,1674554857
286,talara,-4.5772,-81.2719,294.99,78,85,3.88,PE,1674554857
287,acapetahua,15.2833,-92.7,294.81,65,4,1.55,MX,1674554857
288,elko,41.0002,-115.5012,264.16,98,91,0.64,US,1674554858
289,hofn,64.2539,-15.2082,277.88,95,100,5.25,IS,1674554574
290,boralday,43.3578,76.8594,264.07,67,40,2.0,KZ,1674554858
291,pevek,69.7008,170.3133,246.48,74,82,1.25,RU,1674554859
292,roald,62.5833,6.1333,282.23,81,75,7.2,NO,1674554859
293,najran,17.4924,44.1277,298.29,19,1,1.04,SA,1674554859
294,miles city,46.4083,-105.8406,272.69,80,75,6.17,US,1674554859
295,gorom-gorom,14.4439,-0.2361,304.26,11,4,2.91,BF,1674554859
296,tahe,52.3333,124.7333,243.62,95,39,1.58,CN,1674554860
297,quixeramobim,-5.1992,-39.2928,297.54,82,55,1.08,BR,1674554616
298,amritsar,31.6331,74.8656,290.12,72,75,4.12,IN,1674554860
299,sao jose da coroa grande,-8.8978,-35.1478,299.73,71,17,2.91,BR,1674554860
300,praya,14.9215,-23.5087,295.45,64,40,5.66,CV,1674554860
301,hopeman,57.7068,-3.4291,285.44,81,40,4.12,GB,1674554860
302,mildura,-34.2,142.15,298.75,52,30,6.6,AU,1674554732
303,lesozavodsk,45.4794,133.4244,246.6,95,100,1.73,RU,1674554861
304,taksimo,56.3444,114.8794,238.18,92,34,0.49,RU,1674554861
305,qasigiannguit,68.8193,-51.1922,268.29,76,100,3.3,GL,1674554861
306,minab,27.1467,57.0801,292.6,24,5,6.74,IR,1674554862
307,asyut,27.181,31.1837,295.03,37,0,4.95,EG,1674554862
308,machinga,-15.1685,35.3,292.92,94,100,1.84,MW,1674554862
309,quatre cocos,-20.2078,57.7625,298.31,75,100,3.04,MU,1674554862
310,jaisalmer,26.9147,70.9181,293.21,19,1,5.23,IN,1674554162
311,zdvinsk,54.7021,78.661,263.09,94,100,5.52,RU,1674554862
312,korla,41.7597,86.1469,263.37,63,86,2.34,CN,1674554862
313,beringovskiy,63.05,179.3167,248.77,99,95,5.46,RU,1674554863
314,half moon bay,37.4636,-122.4286,284.99,54,0,2.57,US,1674554863
315,shchelkun,56.3034,60.9483,265.91,81,13,4.2,RU,1674554863
316,olot,42.181,2.4901,277.7,47,100,1.79,ES,1674554863
317,pathein,16.7833,94.7333,306.0,17,4,3.1,MM,1674554863
318,roberval,48.5168,-72.2324,267.76,84,100,5.2,CA,1674554863
319,naze,28.3667,129.4833,279.66,79,100,13.57,JP,1674554860
320,sibolga,1.7427,98.7792,297.63,85,100,1.87,ID,1674554686
321,vanimo,-2.6741,141.3028,297.36,94,100,0.86,PG,1674554864
322,mersing,2.4312,103.8405,296.55,95,100,3.71,MY,1674554715
323,rhyl,53.3196,-3.4886,282.03,3,54,2.01,GB,1674554864
324,vestmannaeyjar,63.4427,-20.2734,280.41,86,100,8.52,IS,1674554767
325,baherden,38.4362,57.4316,275.61,35,0,3.91,TM,1674554864
326,grand-santi,4.25,-54.3833,292.64,100,55,0.84,GF,1674554864
327,rock sound,24.9,-76.2,297.29,80,9,7.7,BS,1674554865
328,novokuznetsk,53.7557,87.1099,262.7,78,100,5.14,RU,1674554865
329,road town,18.4167,-64.6167,298.2,67,49,8.61,VG,1674554865
330,karratha,-20.7377,116.8463,303.31,63,65,4.75,AU,1674554865
331,ruteng,-8.6136,120.4721,292.49,83,96,1.3,ID,1674554865
332,yining,29.0361,114.5636,274.2,43,0,2.41,CN,1674554866
333,macau,22.2006,113.5461,289.04,48,0,9.77,MO,1674554861
334,boden,65.8252,21.6886,271.15,93,33,1.32,SE,1674554623
335,abaete,-19.16,-45.4458,293.89,94,97,1.49,BR,1674554866
336,dolores,-36.3132,-57.6792,291.2,74,18,2.55,AR,1674554866
337,richards bay,-28.783,32.0377,307.72,36,0,5.28,ZA,1674554866
338,areia branca,-4.9561,-37.1369,299.67,75,98,4.01,BR,1674554866
339,salalah,17.0151,54.0924,297.3,58,52,4.76,OM,1674554866
340,aripuana,-9.1667,-60.6333,294.39,99,96,0.8,BR,1674554867
341,verkhnevilyuysk,63.4453,120.3167,233.22,100,100,1.11,RU,1674554867
342,flin flon,54.7682,-101.865,246.92,100,95,1.54,CA,1674554867
343,hasaki,35.7333,140.8333,276.37,83,57,8.61,JP,1674554868
344,methoni,36.8197,21.7049,290.49,66,11,0.84,GR,1674554868
345,flagstaff,35.1981,-111.6513,268.96,91,0,0.0,US,1674554868
346,mangrol,21.1167,70.1167,296.73,35,32,6.06,IN,1674554868
347,pochutla,15.7432,-96.4661,293.05,70,0,1.27,MX,1674554869
348,marevo,57.3146,32.0804,270.45,88,100,4.18,RU,1674554869
349,kindu,-2.95,25.95,297.3,81,100,1.15,CD,1674554869
350,zhuhai,22.2769,113.5678,289.18,48,0,9.77,CN,1674554575
351,abha,18.2164,42.5053,291.29,48,20,6.17,SA,1674554869
352,huancabamba,-5.2386,-79.4506,287.76,92,91,2.37,PE,1674554870
353,mokrous,51.2333,47.5167,267.89,69,7,2.77,RU,1674554870
354,ossora,59.2353,163.0719,263.0,93,100,8.83,RU,1674554870
355,taltal,-25.4,-70.4833,292.56,84,30,0.51,CL,1674554870
356,shitkino,56.3703,98.3543,259.34,98,100,0.99,RU,1674554870
357,vredendal,-31.6683,18.5012,298.1,45,19,8.1,ZA,1674554870
358,san quintin,30.4833,-115.95,284.15,43,0,2.44,MX,1674554871
359,koulikoro,14.0,-7.75,303.14,9,18,5.38,ML,1674554871
360,camopi,3.1655,-52.3158,293.26,100,68,0.49,GF,1674554871
361,tashtyp,52.7939,89.8983,263.37,83,100,5.36,RU,1674554871
362,yeppoon,-23.1333,150.7333,298.03,78,0,3.24,AU,1674554871
363,fonte boa,-2.4959,-66.2662,295.23,99,94,0.71,BR,1674554871
364,torquay,50.4638,-3.5143,275.74,95,43,2.24,GB,1674554556
365,pailon,-17.65,-62.75,296.65,91,100,3.62,BO,1674554872
366,tucurui,-3.7661,-49.6725,295.43,98,99,0.96,BR,1674554872
367,maningrida,-12.0667,134.2667,300.25,81,100,3.1,AU,1674554872
368,halifax,44.6453,-63.5724,271.73,90,100,5.81,CA,1674554873
369,hambantota,6.1241,81.1185,300.34,89,75,1.54,LK,1674554713
370,banyo,6.75,11.8167,303.67,14,86,2.95,CM,1674554873
371,aketi,2.7388,23.7833,309.51,24,100,0.38,CD,1674554874
372,humberto de campos,-2.5983,-43.4611,296.72,94,19,1.19,BR,1674554874
373,pemangkat,1.1667,108.9667,299.03,87,99,6.33,ID,1674554874
374,kongolo,-5.3833,27.0,299.41,74,99,1.84,CD,1674554874
375,lobito,-12.3481,13.5456,301.09,67,78,4.12,AO,1674554874
376,puerto suarez,-18.95,-57.8,295.07,96,99,0.85,BO,1674554875
377,hobyo,5.3505,48.5268,300.25,60,20,10.37,SO,1674554875
378,praia,14.9215,-23.5087,295.45,64,40,5.66,CV,1674554875
379,cervo,43.6702,-7.4101,281.91,75,100,7.45,ES,1674554876
380,port hedland,-20.3167,118.5667,303.18,74,80,5.14,AU,1674554876
381,bilma,18.6853,12.9164,301.24,8,1,4.08,NE,1674554876
382,pomabamba,-8.8333,-77.4667,281.48,89,94,1.08,PE,1674554876
383,san vicente,-26.6167,-54.1333,292.89,69,0,0.81,AR,1674554876
384,komsomolskiy,40.4272,71.7189,274.55,44,4,1.03,UZ,1674554876
385,marrakesh,31.6315,-8.0083,282.19,71,0,3.6,MA,1674554877
386,port moresby,-9.4431,147.1797,299.5,85,100,1.57,PG,1674554724
387,yerbogachen,61.2767,108.0108,233.23,100,72,0.2,RU,1674554877
388,barkly west,-28.5354,24.5215,307.22,18,7,5.33,ZA,1674554877
389,bubaque,11.2833,-15.8333,296.06,79,9,2.99,GW,1674554877
390,oksbol,55.6268,8.2876,276.43,85,69,4.28,DK,1674554877
391,warrnambool,-38.3833,142.4833,289.49,92,15,3.65,AU,1674554878
392,norman wells,65.282,-126.8329,251.38,99,100,0.1,CA,1674554878
393,dwarka,22.2394,68.9678,294.15,29,5,5.65,IN,1674554754
394,ahipara,-35.1667,173.1667,291.13,91,100,3.44,NZ,1674554878
395,poso,-1.3959,120.7524,299.84,81,89,0.35,ID,1674554878
396,murmashi,68.8154,32.8115,271.38,74,0,4.02,RU,1674554878
397,dundalk,39.2507,-76.5205,276.14,72,0,3.09,US,1674554818
398,dabakala,8.3667,-4.4333,303.36,52,16,2.64,CI,1674554879
399,nome,64.5011,-165.4064,255.19,60,0,6.69,US,1674554879
400,moultonborough,43.7548,-71.3967,271.99,97,33,1.87,US,1674554879
401,villagarzon,1.0375,-76.6267,294.0,94,100,0.68,CO,1674554879
402,grand-lahou,5.1367,-5.0242,302.05,71,69,2.61,CI,1674554879
403,olafsvik,64.8945,-23.7142,278.51,91,73,9.51,IS,1674554879
404,diffa,13.3154,12.6113,303.47,10,89,6.37,NE,1674554880
405,harper,4.375,-7.7169,301.74,71,35,2.2,LR,1674554880
406,mahebourg,-20.4081,57.7,298.73,72,100,1.97,MU,1674554880
407,winnemucca,40.973,-117.7357,269.16,78,1,1.4,US,1674554880
408,grand gaube,-20.0064,57.6608,297.17,82,100,4.02,MU,1674554881
409,moron,-34.6534,-58.6198,298.69,56,39,3.72,AR,1674554881
410,tiksi,71.6872,128.8694,241.18,100,100,1.87,RU,1674554881
411,bambous virieux,-20.3428,57.7575,298.68,72,100,2.57,MU,1674554881
412,yarqa,31.9785,35.6947,290.18,40,0,3.28,JO,1674554881
413,bihoro,43.8228,144.1044,265.19,93,75,4.12,JP,1674554667
414,new milford,40.9327,-74.0179,276.05,71,75,3.6,US,1674554715
415,sokoto,13.0609,5.239,304.79,10,3,6.53,NG,1674554882
416,jawhar,2.7809,45.5005,307.9,29,48,6.68,SO,1674554882
417,san patricio,28.017,-97.5169,293.07,87,100,8.1,US,1674554883
418,penzance,50.1186,-5.5371,279.69,87,20,3.09,GB,1674554883
419,west plains,36.7281,-91.8524,271.53,73,0,1.34,US,1674554883
420,kem,64.9555,34.5793,270.87,91,100,5.39,RU,1674554883
421,meiganga,6.5167,14.3,304.79,15,87,4.27,CM,1674554884
422,sinalunga,43.2152,11.7495,280.23,78,39,2.1,IT,1674554884
423,cayenne,4.9333,-52.3333,298.17,78,75,3.6,GF,1674554712
424,itaituba,-4.2761,-55.9836,294.77,100,100,0.56,BR,1674554884
425,asau,46.4333,26.4,272.75,70,97,2.57,RO,1674554884
426,tilichiki,60.4667,166.1,256.17,85,100,5.22,RU,1674554885
427,ostrovnoy,68.0531,39.5131,269.52,87,96,9.24,RU,1674554885
428,santa isabel do rio negro,-0.4139,-65.0192,293.97,97,83,0.79,BR,1674554885
429,pita,10.8333,-12.5833,303.34,28,40,0.42,GN,1674554885
430,siderno,38.2779,16.302,283.89,67,3,2.12,IT,1674554885
431,verkhoyansk,67.5447,133.385,228.97,100,95,1.13,RU,1674554885
432,bayir,37.2687,28.2167,286.44,54,1,2.17,TR,1674554886
433,zeya,53.75,127.2667,242.47,94,100,1.77,RU,1674554886
434,lata,40.1629,-8.3327,281.38,59,3,2.93,PT,1674554887
435,brandys nad labem-stara boleslav,50.1871,14.6633,275.99,92,35,1.26,CZ,1674554887
436,ban dung,17.699,103.2596,299.26,85,1,6.4,TH,1674554887
437,voi,-3.3945,38.563,302.34,49,100,4.43,KE,1674554888
438,emporia,38.4039,-96.1817,271.26,86,0,0.0,US,1674554888
439,santa lucia,27.9117,-15.5407,287.46,59,40,7.72,ES,1674554889
440,namikupa,-10.8333,39.6,304.2,48,100,4.1,TZ,1674554889
441,mehamn,71.0357,27.8492,274.12,80,40,13.89,NO,1674554889
442,dingzhou,38.5131,114.9956,264.19,10,0,1.32,CN,1674554889
443,benjamin constant,-4.3831,-70.0311,294.96,99,100,0.61,BR,1674554890
444,spiridonovka,53.0925,50.6462,264.79,87,18,1.45,RU,1674554890
445,upernavik,72.7868,-56.1549,252.69,85,100,4.81,GL,1674554890
446,ranfurly,-45.1333,170.1,284.32,88,70,2.16,NZ,1674554891
447,fairbanks,64.8378,-147.7164,252.93,79,100,1.54,US,1674554845
448,aklavik,68.2191,-135.0107,250.91,97,100,4.64,CA,1674554891
449,noumea,-22.2763,166.4572,298.14,87,38,0.91,NC,1674554649
450,long branch,40.3043,-73.9924,276.05,73,75,3.09,US,1674554891
451,touros,-5.1989,-35.4608,300.13,72,31,4.33,BR,1674554892
452,kudahuvadhoo,2.6708,72.8944,299.23,81,92,8.1,MV,1674554892
453,srednebelaya,50.6594,128.0106,247.36,99,64,1.0,RU,1674554892
454,sajanan,37.0573,9.2426,282.29,54,0,4.17,TN,1674554892
455,gambo,4.6482,22.2633,310.0,10,91,1.93,CF,1674554892
456,oudtshoorn,-33.5907,22.2014,296.35,37,44,5.76,ZA,1674554892
457,juba,4.8517,31.5825,309.44,15,91,3.78,SS,1674554892
458,malanje,-9.5402,16.341,295.12,81,99,2.53,AO,1674554893
459,lasa,46.6166,10.7002,277.05,71,97,0.74,IT,1674554893
460,newcastle,-32.9272,151.7765,297.47,84,51,3.6,AU,1674554688
461,puerto del rosario,28.5004,-13.8627,292.01,59,40,7.2,ES,1674554894
462,oranjemund,-28.55,16.4333,295.14,58,3,5.66,NA,1674554894
463,oktyabrskiy,54.4815,53.471,264.43,92,81,0.92,RU,1674554894
464,labrea,-7.2586,-64.7981,295.24,100,100,0.21,BR,1674554894
465,sur,22.5667,59.5289,294.15,45,24,5.51,OM,1674554894
466,marfino,55.7028,37.3822,272.23,86,75,4.0,RU,1674554894
467,shitanjing,39.2342,106.3439,259.46,24,3,2.07,CN,1674554895
468,talnakh,69.4865,88.3972,243.26,95,48,3.79,RU,1674554895
469,ayan,56.45,138.1667,244.86,74,100,3.55,RU,1674554895
470,kokkola,63.8385,23.1307,273.67,97,75,3.09,FI,1674554895
471,mayumba,-3.432,10.6554,299.7,79,97,0.86,GA,1674554896
472,nyrob,60.733,56.7202,263.34,95,100,3.06,RU,1674554896
473,morros,-9.4467,-46.3003,297.46,78,70,0.48,BR,1674554896
474,jiblah,13.9216,44.1467,292.93,46,9,2.36,YE,1674554896
475,moose factory,51.2585,-80.6094,255.14,85,100,4.12,CA,1674554897
476,owando,-0.4819,15.8999,307.45,39,58,1.3,CG,1674554897
477,kaabong,3.4836,34.1492,300.46,33,98,7.38,UG,1674554897
478,dakar,14.6937,-17.4441,293.64,74,48,3.71,SN,1674554897
479,angoche,-16.2325,39.9086,305.29,53,98,6.23,MZ,1674554897
480,aljezur,37.3191,-8.8033,281.53,51,0,4.85,PT,1674554785
481,namibe,-15.1961,12.1522,297.99,77,89,3.74,AO,1674554897
482,adrar,20.5022,-10.0711,293.51,14,0,4.12,MR,1674554898
483,salym,60.0625,71.4789,263.49,94,100,2.08,RU,1674554898
484,kenai,60.5544,-151.2583,273.2,97,100,1.54,US,1674554898
485,aksu,41.1231,80.2644,265.11,66,6,1.21,CN,1674554898
486,viedma,-40.8135,-62.9967,299.52,39,31,8.88,AR,1674554898
487,yarim,14.298,44.3779,291.3,35,22,3.95,YE,1674554899
488,andros town,24.7,-77.7667,296.13,79,18,7.16,BS,1674554899
489,pirajui,-21.9986,-49.4572,294.27,92,100,0.98,BR,1674554899
490,preobrazheniye,42.9019,133.9064,251.42,68,16,4.45,RU,1674554899
491,tortoli,39.9256,9.6572,283.31,67,100,0.7,IT,1674554899
492,westport,41.1415,-73.3579,276.14,70,100,4.63,US,1674554900
493,panama city,8.9936,-79.5197,299.73,82,75,3.09,PA,1674554815
494,verkhnyaya maksakovka,61.635,50.9674,266.16,93,75,3.0,RU,1674554901
495,bucerias,20.75,-105.3333,294.81,84,98,0.72,MX,1674554901
496,sinnamary,5.3833,-52.95,297.31,82,48,4.99,GF,1674554901
497,kodinsk,58.6881,99.1844,251.45,99,100,0.87,RU,1674554902
498,los alamos,35.8881,-106.307,269.03,75,100,0.0,US,1674554902
499,anchorage,61.2181,-149.9003,274.64,91,100,3.6,US,1674554902
500,inuvik,68.3499,-133.7218,251.57,77,100,0.0,CA,1674554902
501,jishui,33.7333,115.4,268.42,15,0,2.6,CN,1674554903
502,saint-denis,48.9167,2.3333,275.97,85,100,6.17,FR,1674554903
503,lebork,54.5392,17.7501,273.41,79,34,1.54,PL,1674554903
504,petropavlovsk-kamchatskiy,53.0452,158.6483,257.63,80,37,4.08,RU,1674554903
505,leningradskiy,69.3833,178.4167,242.09,92,20,3.97,RU,1674554903
506,juan lacaze,-34.4342,-57.4381,292.19,48,11,6.18,UY,1674554903
507,gravdal,68.1214,13.5031,276.09,60,75,6.17,NO,1674554903
508,meulaboh,4.1363,96.1285,299.06,85,79,5.32,ID,1674554904
509,baft,29.234,56.6057,275.6,38,0,4.1,IR,1674554904
510,krasnotorka,48.682,37.5327,276.21,51,54,6.26,UA,1674554904
511,alanya,36.5438,31.9998,291.22,41,0,1.82,TR,1674554904
512,porto nacional,-10.7081,-48.4172,295.15,95,90,0.48,BR,1674554905
513,miri,4.4148,114.0089,298.27,91,99,5.43,MY,1674554905
514,dalmatovo,56.26,62.9362,265.54,92,9,3.41,RU,1674554905
515,isiro,2.7739,27.616,305.84,23,98,1.22,CD,1674554905
516,butwal,27.7006,83.4484,297.96,31,2,1.94,NP,1674554905
517,solnechnyy,50.7214,136.6319,239.6,98,100,1.89,RU,1674554906
518,sorong,-0.8833,131.25,300.31,79,100,2.49,ID,1674554906
519,freeport,40.6576,-73.5832,276.25,66,100,5.14,US,1674554768
520,sfantu gheorghe,45.8667,25.7833,277.74,56,19,2.76,RO,1674554906
521,madera,37.1666,-119.8343,280.97,95,0,1.98,US,1674554907
522,cuenca,-2.8833,-78.9833,284.72,97,100,1.18,EC,1674554844
523,mandurah,-32.55,115.7,299.29,55,2,11.85,AU,1674554806
524,yar-sale,66.8333,70.8333,261.72,95,100,6.67,RU,1674554907
525,beruwala,6.4788,79.9828,299.64,79,96,2.21,LK,1674554907
526,ogembo,-0.7984,34.7253,300.56,30,83,2.65,KE,1674554907
527,merauke,-8.4667,140.3333,299.79,81,100,2.71,ID,1674554907
528,dubti,11.7361,41.0853,303.39,27,34,4.09,ET,1674554908
529,yuanping,38.7153,112.7575,259.32,21,0,0.35,CN,1674554908
530,kysyl-syr,63.8986,122.7617,231.1,99,100,2.24,RU,1674554908
531,varhaug,58.6147,5.6457,279.9,98,100,3.57,NO,1674554908
532,beysehir,37.6773,31.7246,282.61,43,0,0.64,TR,1674554909
533,chapais,49.7834,-74.8492,267.03,95,100,4.81,CA,1674554909
534,flinders,-34.5833,150.8552,295.58,80,98,1.43,AU,1674554909
535,baykit,61.67,96.37,238.41,99,54,1.38,RU,1674554909
536,taman,45.2117,36.7161,279.98,64,0,6.68,RU,1674554909
537,derac,19.65,-71.8167,293.9,76,4,2.0,HT,1674554910
538,cerrito,6.8432,-72.694,281.83,88,83,3.56,CO,1674554910
539,saint pete beach,27.7253,-82.7412,285.38,70,77,1.79,US,1674554910
540,anadyr,64.75,177.4833,244.64,88,49,1.98,RU,1674554910
541,acapulco,16.8634,-99.8901,294.05,78,0,1.03,MX,1674554910
542,doka,13.5167,35.7667,307.27,19,6,4.31,SD,1674554910
543,cedar city,37.6775,-113.0619,262.69,79,100,2.06,US,1674554911
544,bandarbeyla,9.4942,50.8122,298.56,60,96,8.81,SO,1674554911
545,praia da vitoria,38.7333,-27.0667,288.57,86,95,7.92,PT,1674554911
546,shenjiamen,29.9576,122.298,273.44,52,27,12.94,CN,1674554911
547,port-cartier,50.0334,-66.8654,264.68,96,40,2.79,CA,1674554911
548,santa ana huista,15.6833,-91.8167,288.61,69,2,2.0,GT,1674554912
549,batticaloa,7.7102,81.6924,299.38,69,95,5.05,LK,1674554912
550,goma,-1.6792,29.2228,296.99,53,100,1.73,CD,1674554912
551,calabozo,8.9242,-67.4293,297.43,66,99,4.23,VE,1674554912
552,port lincoln,-34.7333,135.8667,289.93,78,0,7.18,AU,1674554912
553,zheleznodorozhnyy,55.7503,38.0042,272.38,91,68,2.53,RU,1674554912
554,kanniyakumari,8.0833,77.5667,300.3,72,100,6.79,IN,1674554913
555,arman,59.7,150.1667,246.95,84,100,5.75,RU,1674554913
556,azare,11.6765,10.1948,303.31,10,36,4.38,NG,1674554914
557,ulaangom,49.9811,92.0667,249.96,98,100,0.82,MN,1674554914
558,umm lajj,25.0213,37.2685,296.96,50,0,3.45,SA,1674554914
559,bac lieu,9.285,105.7244,299.71,74,52,8.8,VN,1674554747
560,port hardy,50.6996,-127.4199,278.67,96,100,5.63,CA,1674554914
561,andenes,69.3143,16.1194,276.14,60,75,12.86,NO,1674554914
562,alakurtti,66.9672,30.3491,270.69,92,61,4.25,RU,1674554914
563,russell,32.3502,-85.1999,274.72,93,0,0.0,US,1674554915
